{"mid":"eeda11bd-f07f-4f43-a84a-d8070d692c83","action":"geo.city.list","status":1000,"result":[{"cityid":1512236,"cityname":"Абакан","continentid":4,"continentname":"Европа","countryid":2017370,"countryname":"Россия","regionid":1608,"regionname":"Хакасия","iso":643,"lat":91.42,"lng":53.71},{"cityid":584441,"cityname":"Абинск","continentid":4,"continentname":"Европа","countryid":2017370,"countryname":"Россия","regionid":1591,"regionname":"Краснодарский край","iso":643,"lat":38.16,"lng":44.86},{"cityid":2126948,"cityname":"Аври","continentid":4,"continentname":"Европа","countryid":2017370,"countryname":"Россия","regionid":1603,"regionname":"Хабаровский край","iso":643,"lat":141.3,"lng":53.3833},{"cityid":580221,"cityname":"Автозаводский Район","continentid":4,"continentname":"Европа","countryid":2017370,"countryname":"Россия","regionid":2030,"regionname":"Самарская область","iso":643,"lat":49.4333,"lng":53.5167},{"cityid":484856,"cityname":"Агидель","continentid":4,"continentname":"Европа","countryid":2017370,"countryname":"Россия","regionid":1155,"regionname":"Башкортостан","iso":643,"lat":53.93,"lng":55.87},{"cityid":580054,"cityname":"Азов","continentid":4,"continentname":"Европа","countryid":2017370,"countryname":"Россия","regionid":1998,"regionname":"Ростовская область","iso":643,"lat":39.41,"lng":47.11},{"cityid":583673,"cityname":"Аксай","continentid":4,"continentname":"Европа","countryid":2017370,"countryname":"Россия","regionid":1998,"regionname":"Ростовская область","iso":643,"lat":39.8667,"lng":47.2584},{"cityid":583437,"cityname":"Алатырь","continentid":4,"continentname":"Европа","countryid":2017370,"countryname":"Россия","regionid":1316,"regionname":"Чувашия","iso":643,"lat":46.6,"lng":54.85},{"cityid":583350,"cityname":"Александров","continentid":4,"continentname":"Европа","countryid":2017370,"countryname":"Россия","regionid":2231,"regionname":"Владимирская область","iso":643,"lat":38.7122,"lng":56.3952},{"cityid":582956,"cityname":"Алексеевка","continentid":4,"continentname":"Европа","countryid":2017370,"countryname":"Россия","regionid":1174,"regionname":"Белгородская область","iso":643,"lat":38.6903,"lng":50.6309},{"cityid":582750,"cityname":"Алексин","continentid":4,"continentname":"Европа","countryid":2017370,"countryname":"Россия","regionid":2180,"regionname":"Тульская область","iso":643,"lat":37.0674,"lng":54.505},{"cityid":8243744,"cityname":"Алтай","continentid":4,"continentname":"Европа","countryid":2017370,"countryname":"Россия","regionid":1946,"regionname":"Приморский край","iso":643,"lat":134.7786,"lng":43.3575},{"cityid":1511736,"cityname":"Алтайский","continentid":4,"continentname":"Европа","countryid":2017370,"countryname":"Россия","regionid":1084,"regionname":"Алтайский край","iso":643,"lat":85.3325,"lng":51.9533},{"cityid":582432,"cityname":"Альметьевск","continentid":4,"continentname":"Европа","countryid":2017370,"countryname":"Россия","regionid":2145,"regionname":"Татарстан","iso":643,"lat":52.33,"lng":54.88},{"cityid":582609,"cityname":"Альфа","continentid":4,"continentname":"Европа","countryid":2017370,"countryname":"Россия","regionid":2150,"regionname":"Тамбовская область","iso":643,"lat":40.5347,"lng":52.4539},{"cityid":2027749,"cityname":"Амурск","continentid":4,"continentname":"Европа","countryid":2017370,"countryname":"Россия","regionid":1603,"regionname":"Хабаровский край","iso":643,"lat":136.8814,"lng":50.2368},{"cityid":814300,"cityname":"Амурская область","continentid":4,"continentname":"Европа","countryid":2017370,"countryname":"Россия","regionid":1614,"regionname":"Калужская область","iso":643,"lat":34.3141,"lng":54.1549},{"cityid":582182,"cityname":"Анапа","continentid":4,"continentname":"Европа","countryid":2017370,"countryname":"Россия","regionid":1591,"regionname":"Краснодарский край","iso":643,"lat":37.32,"lng":44.89},{"cityid":2027667,"cityname":"Ангарск","continentid":4,"continentname":"Европа","countryid":2017370,"countryname":"Россия","regionid":1537,"regionname":"Иркутская область","iso":643,"lat":103.88,"lng":52.53},{"cityid":1511494,"cityname":"Анжеро-Судженск","continentid":4,"continentname":"Европа","countryid":2017370,"countryname":"Россия","regionid":1595,"regionname":"Кемеровская область","iso":643,"lat":86.0285,"lng":56.081},{"cityid":581357,"cityname":"Апатиты","continentid":4,"continentname":"Европа","countryid":2017370,"countryname":"Россия","regionid":1782,"regionname":"Мурманская область","iso":643,"lat":33.4031,"lng":67.5641},{"cityid":581321,"cityname":"Апрелевка","continentid":4,"continentname":"Европа","countryid":2017370,"countryname":"Россия","regionid":1763,"regionname":"МО","iso":643,"lat":37.06,"lng":55.53},{"cityid":1511466,"cityname":"Арамиль","continentid":4,"continentname":"Европа","countryid":2017370,"countryname":"Россия","regionid":2127,"regionname":"Свердловская область","iso":643,"lat":60.83,"lng":56.7},{"cityid":580724,"cityname":"Арзамас","continentid":4,"continentname":"Европа","countryid":2017370,"countryname":"Россия","regionid":1830,"regionname":"Нижегородская область","iso":643,"lat":43.82,"lng":55.38},{"cityid":2027499,"cityname":"Ариадное","continentid":4,"continentname":"Европа","countryid":2017370,"countryname":"Россия","regionid":1946,"regionname":"Приморский край","iso":643,"lat":134.3873,"lng":45.141},{"cityid":580922,"cityname":"Армавир","continentid":4,"continentname":"Европа","countryid":2017370,"countryname":"Россия","regionid":1591,"regionname":"Краснодарский край","iso":643,"lat":41.12,"lng":44.98},{"cityid":6268353,"cityname":"Аро","continentid":4,"continentname":"Европа","countryid":2017370,"countryname":"Россия","regionid":1668,"regionname":"Ленинградская область","iso":643,"lat":30.6555,"lng":59.9243},{"cityid":2027468,"cityname":"Арсеньев","continentid":4,"continentname":"Европа","countryid":2017370,"countryname":"Россия","regionid":1946,"regionname":"Приморский край","iso":643,"lat":133.27,"lng":44.16},{"cityid":2027456,"cityname":"Артем","continentid":4,"continentname":"Европа","countryid":2017370,"countryname":"Россия","regionid":1946,"regionname":"Приморский край","iso":643,"lat":132.19,"lng":43.36},{"cityid":580797,"cityname":"Артём","continentid":4,"continentname":"Европа","countryid":2017370,"countryname":"Россия","regionid":1819,"regionname":"Новгородская область","iso":643,"lat":33.5026,"lng":58.7417},{"cityid":580783,"cityname":"Арти","continentid":4,"continentname":"Европа","countryid":2017370,"countryname":"Россия","regionid":2127,"regionname":"Свердловская область","iso":643,"lat":58.52,"lng":56.41},{"cityid":581049,"cityname":"Архангельск","continentid":4,"continentname":"Европа","countryid":2017370,"countryname":"Россия","regionid":1114,"regionname":"Архангельская область","iso":643,"lat":40.5433,"lng":64.5401},{"cityid":1511330,"cityname":"Асбест","continentid":4,"continentname":"Европа","countryid":2017370,"countryname":"Россия","regionid":2127,"regionname":"Свердловская область","iso":643,"lat":61.45,"lng":57.01},{"cityid":1511309,"cityname":"Асино","continentid":4,"continentname":"Европа","countryid":2017370,"countryname":"Россия","regionid":2174,"regionname":"Томская область","iso":643,"lat":86.1439,"lng":56.9999},{"cityid":580497,"cityname":"Астрахань","continentid":4,"continentname":"Европа","countryid":2017370,"countryname":"Россия","regionid":1121,"regionname":"Астраханская область","iso":643,"lat":48.04,"lng":46.34},{"cityid":580420,"cityname":"Аткарск","continentid":4,"continentname":"Европа","countryid":2017370,"countryname":"Россия","regionid":2034,"regionname":"Саратовская область","iso":643,"lat":45.0,"lng":51.87},{"cityid":7594659,"cityname":"Атлас","continentid":4,"continentname":"Европа","countryid":2017370,"countryname":"Россия","regionid":2145,"regionname":"Татарстан","iso":643,"lat":52.9303,"lng":55.3084},{"cityid":583798,"cityname":"Ахтубинск","continentid":4,"continentname":"Европа","countryid":2017370,"countryname":"Россия","regionid":1121,"regionname":"Астраханская область","iso":643,"lat":46.17,"lng":48.27},{"cityid":1512165,"cityname":"Ачинск","continentid":4,"continentname":"Европа","countryid":2017370,"countryname":"Россия","regionid":1640,"regionname":"Красноярский край","iso":643,"lat":90.4993,"lng":56.2694},{"cityid":580660,"cityname":"Аша","continentid":4,"continentname":"Европа","countryid":2017370,"countryname":"Россия","regionid":1272,"regionname":"Челябинская область","iso":643,"lat":57.2722,"lng":54.9973},{"cityid":1511094,"cityname":"Баган","continentid":4,"continentname":"Европа","countryid":2017370,"countryname":"Россия","regionid":1860,"regionname":"Новосибирская область","iso":643,"lat":77.6646,"lng":54.1001},{"cityid":579815,"cityname":"Бадь-Пашня","continentid":4,"continentname":"Европа","countryid":2017370,"countryname":"Россия","regionid":1930,"regionname":"Пермский край","iso":643,"lat":55.5395,"lng":59.8986},{"cityid":2026986,"cityname":"Байкал","continentid":4,"continentname":"Европа","countryid":2017370,"countryname":"Россия","regionid":1537,"regionname":"Иркутская область","iso":643,"lat":104.7894,"lng":51.8792},{"cityid":579738,"cityname":"Бакал","continentid":4,"continentname":"Европа","countryid":2017370,"countryname":"Россия","regionid":1272,"regionname":"Челябинская область","iso":643,"lat":58.8,"lng":54.94},{"cityid":579529,"cityname":"Балабаново","continentid":4,"continentname":"Европа","countryid":2017370,"countryname":"Россия","regionid":1614,"regionname":"Калужская область","iso":643,"lat":36.65,"lng":55.17},{"cityid":579492,"cityname":"Балаково","continentid":4,"continentname":"Европа","countryid":2017370,"countryname":"Россия","regionid":2034,"regionname":"Саратовская область","iso":643,"lat":47.7941,"lng":52.0247},{"cityid":579266,"cityname":"Баранчинский","continentid":4,"continentname":"Европа","countryid":2017370,"countryname":"Россия","regionid":2127,"regionname":"Свердловская область","iso":643,"lat":59.68,"lng":58.15},{"cityid":1510853,"cityname":"Барнаул","continentid":4,"continentname":"Европа","countryid":2017370,"countryname":"Россия","regionid":1084,"regionname":"Алтайский край","iso":643,"lat":83.76,"lng":53.36},{"cityid":1510852,"cityname":"Барнаул","continentid":4,"continentname":"Европа","countryid":2017370,"countryname":"Россия","regionid":1598,"regionname":"Курганская область","iso":643,"lat":66.2528,"lng":55.6536},{"cityid":578740,"cityname":"Батайск","continentid":4,"continentname":"Европа","countryid":2017370,"countryname":"Россия","regionid":1998,"regionname":"Ростовская область","iso":643,"lat":39.73,"lng":47.16},{"cityid":6820747,"cityname":"Башкортостан","continentid":4,"continentname":"Европа","countryid":2017370,"countryname":"Россия","regionid":1155,"regionname":"Башкортостан","iso":643,"lat":56.2518,"lng":56.2445},{"cityid":576566,"cityname":"Бежецк","continentid":4,"continentname":"Европа","countryid":2017370,"countryname":"Россия","regionid":2185,"regionname":"Тверская область","iso":643,"lat":36.6965,"lng":57.7851},{"cityid":578072,"cityname":"Белгород","continentid":4,"continentname":"Европа","countryid":2017370,"countryname":"Россия","regionid":1174,"regionname":"Белгородская область","iso":643,"lat":36.58,"lng":50.61},{"cityid":578120,"cityname":"Белебей","continentid":4,"continentname":"Европа","countryid":2017370,"countryname":"Россия","regionid":1155,"regionname":"Башкортостан","iso":643,"lat":54.1167,"lng":54.1167},{"cityid":1510469,"cityname":"Белово","continentid":4,"continentname":"Европа","countryid":2017370,"countryname":"Россия","regionid":1595,"regionname":"Кемеровская область","iso":643,"lat":86.1816,"lng":54.3649},{"cityid":2026895,"cityname":"Белогорск","continentid":4,"continentname":"Европа","countryid":2017370,"countryname":"Россия","regionid":1091,"regionname":"Амурская область","iso":643,"lat":128.4611,"lng":50.9158},{"cityid":577711,"cityname":"Белозёрск","continentid":4,"continentname":"Европа","countryid":2017370,"countryname":"Россия","regionid":2233,"regionname":"Вологодская область","iso":643,"lat":38.107,"lng":60.017},{"cityid":577901,"cityname":"Белоозёрский","continentid":4,"continentname":"Европа","countryid":2017370,"countryname":"Россия","regionid":1763,"regionname":"МО","iso":643,"lat":38.43,"lng":55.45},{"cityid":577881,"cityname":"Белорецк","continentid":4,"continentname":"Европа","countryid":2017370,"countryname":"Россия","regionid":1155,"regionname":"Башкортостан","iso":643,"lat":58.3981,"lng":53.9631},{"cityid":577893,"cityname":"Белореченск","continentid":4,"continentname":"Европа","countryid":2017370,"countryname":"Россия","regionid":1591,"regionname":"Краснодарский край","iso":643,"lat":39.87,"lng":44.76},{"cityid":1510350,"cityname":"Бердск","continentid":4,"continentname":"Европа","countryid":2017370,"countryname":"Россия","regionid":1860,"regionname":"Новосибирская область","iso":643,"lat":83.09,"lng":54.75},{"cityid":577206,"cityname":"Березники","continentid":4,"continentname":"Европа","countryid":2017370,"countryname":"Россия","regionid":1930,"regionname":"Пермский край","iso":643,"lat":56.79,"lng":59.4},{"cityid":1510131,"cityname":"Бея","continentid":4,"continentname":"Европа","countryid":2017370,"countryname":"Россия","regionid":1608,"regionname":"Хакасия","iso":643,"lat":90.9139,"lng":53.0533},{"cityid":824195,"cityname":"Бибаево","continentid":4,"continentname":"Европа","countryid":2017370,"countryname":"Россия","regionid":2145,"regionname":"Татарстан","iso":643,"lat":50.0549,"lng":55.0038},{"cityid":1510018,"cityname":"Бийск","continentid":4,"continentname":"Европа","countryid":2017370,"countryname":"Россия","regionid":1084,"regionname":"Алтайский край","iso":643,"lat":85.25,"lng":52.5667},{"cityid":6267596,"cityname":"Биржа","continentid":4,"continentname":"Европа","countryid":2017370,"countryname":"Россия","regionid":1114,"regionname":"Архангельская область","iso":643,"lat":40.6757,"lng":62.8792},{"cityid":2026643,"cityname":"Биробиджан","continentid":4,"continentname":"Европа","countryid":2017370,"countryname":"Россия","regionid":2287,"regionname":"Еврейская АО","iso":643,"lat":132.9239,"lng":48.7928},{"cityid":576317,"cityname":"Бирск","continentid":4,"continentname":"Европа","countryid":2017370,"countryname":"Россия","regionid":1155,"regionname":"Башкортостан","iso":643,"lat":55.5428,"lng":55.4211},{"cityid":2026609,"cityname":"Благовещенск","continentid":4,"continentname":"Европа","countryid":2017370,"countryname":"Россия","regionid":1091,"regionname":"Амурская область","iso":643,"lat":127.5333,"lng":50.2667},{"cityid":571867,"cityname":"Бовыкины","continentid":4,"continentname":"Европа","countryid":2017370,"countryname":"Россия","regionid":1607,"regionname":"Кировская область","iso":643,"lat":48.4631,"lng":59.2711},{"cityid":1509888,"cityname":"Богданович","continentid":4,"continentname":"Европа","countryid":2017370,"countryname":"Россия","regionid":2127,"regionname":"Свердловская область","iso":643,"lat":62.0494,"lng":56.7803},{"cityid":575634,"cityname":"Богдашино","continentid":4,"continentname":"Европа","countryid":2017370,"countryname":"Россия","regionid":2034,"regionname":"Саратовская область","iso":643,"lat":48.0716,"lng":51.4044},{"cityid":575591,"cityname":"Богородицк","continentid":4,"continentname":"Европа","countryid":2017370,"countryname":"Россия","regionid":2180,"regionname":"Тульская область","iso":643,"lat":38.1241,"lng":53.7717},{"cityid":575560,"cityname":"Богородск","continentid":4,"continentname":"Европа","countryid":2017370,"countryname":"Россия","regionid":1830,"regionname":"Нижегородская область","iso":643,"lat":43.5129,"lng":56.1051},{"cityid":575410,"cityname":"Бокситогорск","continentid":4,"continentname":"Европа","countryid":2017370,"countryname":"Россия","regionid":1668,"regionname":"Ленинградская область","iso":643,"lat":33.8508,"lng":59.4753},{"cityid":570990,"cityname":"Болгар","continentid":4,"continentname":"Европа","countryid":2017370,"countryname":"Россия","regionid":2145,"regionname":"Татарстан","iso":643,"lat":49.0667,"lng":54.95},{"cityid":575349,"cityname":"Бологое","continentid":4,"continentname":"Европа","countryid":2017370,"countryname":"Россия","regionid":2185,"regionname":"Тверская область","iso":643,"lat":34.0383,"lng":57.8288},{"cityid":7495075,"cityname":"Большое","continentid":4,"continentname":"Европа","countryid":2017370,"countryname":"Россия","regionid":2233,"regionname":"Вологодская область","iso":643,"lat":39.2972,"lng":59.2888},{"cityid":2026303,"cityname":"Большой Камень","continentid":4,"continentname":"Европа","countryid":2017370,"countryname":"Россия","regionid":1946,"regionname":"Приморский край","iso":643,"lat":132.354,"lng":43.1128},{"cityid":572665,"cityname":"Бор","continentid":4,"continentname":"Европа","countryid":2017370,"countryname":"Россия","regionid":1830,"regionname":"Нижегородская область","iso":643,"lat":44.0748,"lng":56.3581},{"cityid":572525,"cityname":"Борисоглебск","continentid":4,"continentname":"Европа","countryid":2017370,"countryname":"Россия","regionid":2237,"regionname":"Воронежская область","iso":643,"lat":42.0906,"lng":51.3686},{"cityid":572327,"cityname":"Борковка","continentid":4,"continentname":"Европа","countryid":2017370,"countryname":"Россия","regionid":2199,"regionname":"Ульяновская область","iso":643,"lat":49.15,"lng":54.2333},{"cityid":572154,"cityname":"Боровичи","continentid":4,"continentname":"Европа","countryid":2017370,"countryname":"Россия","regionid":1819,"regionname":"Новгородская область","iso":643,"lat":33.9155,"lng":58.3878},{"cityid":572070,"cityname":"Боровск","continentid":4,"continentname":"Европа","countryid":2017370,"countryname":"Россия","regionid":1614,"regionname":"Калужская область","iso":643,"lat":36.4861,"lng":55.2064},{"cityid":2132037,"cityname":"Брас","continentid":4,"continentname":"Европа","countryid":2017370,"countryname":"Россия","regionid":2028,"regionname":"Сахалин","iso":643,"lat":142.7939,"lng":46.6106},{"cityid":2026094,"cityname":"Братск","continentid":4,"continentname":"Европа","countryid":2017370,"countryname":"Россия","regionid":1537,"regionname":"Иркутская область","iso":643,"lat":101.6142,"lng":56.1325},{"cityid":571557,"cityname":"Бронницы","continentid":4,"continentname":"Европа","countryid":2017370,"countryname":"Россия","regionid":1763,"regionname":"МО","iso":643,"lat":38.2619,"lng":55.4211},{"cityid":571476,"cityname":"Брянск","continentid":4,"continentname":"Европа","countryid":2017370,"countryname":"Россия","regionid":1208,"regionname":"Брянская область","iso":643,"lat":34.3806,"lng":53.2875},{"cityid":571170,"cityname":"Бугульма","continentid":4,"continentname":"Европа","countryid":2017370,"countryname":"Россия","regionid":2145,"regionname":"Татарстан","iso":643,"lat":52.8,"lng":54.55},{"cityid":570427,"cityname":"Бузулук","continentid":4,"continentname":"Европа","countryid":2017370,"countryname":"Россия","regionid":1891,"regionname":"Оренбургская область","iso":643,"lat":52.2635,"lng":52.7807},{"cityid":7044636,"cityname":"Булгаков","continentid":4,"continentname":"Европа","countryid":2017370,"countryname":"Россия","regionid":2225,"regionname":"Волгоградская область","iso":643,"lat":45.1264,"lng":48.4849},{"cityid":2013533,"cityname":"Буреть","continentid":4,"continentname":"Европа","countryid":2017370,"countryname":"Россия","regionid":1537,"regionname":"Иркутская область","iso":643,"lat":103.5108,"lng":52.9919},{"cityid":570490,"cityname":"Буянцево","continentid":4,"continentname":"Европа","countryid":2017370,"countryname":"Россия","regionid":1819,"regionname":"Новгородская область","iso":643,"lat":38.2367,"lng":58.6304},{"cityid":2013735,"cityname":"Валентин","continentid":4,"continentname":"Европа","countryid":2017370,"countryname":"Россия","regionid":1946,"regionname":"Приморский край","iso":643,"lat":134.2991,"lng":43.1211},{"cityid":2013727,"cityname":"Ванавара","continentid":4,"continentname":"Европа","countryid":2017370,"countryname":"Россия","regionid":1640,"regionname":"Красноярский край","iso":643,"lat":102.2843,"lng":60.3468},{"cityid":2119932,"cityname":"Ванино","continentid":4,"continentname":"Европа","countryid":2017370,"countryname":"Россия","regionid":1603,"regionname":"Хабаровский край","iso":643,"lat":140.2531,"lng":49.0985},{"cityid":476372,"cityname":"Ватутинки","continentid":4,"continentname":"Европа","countryid":2017370,"countryname":"Россия","regionid":1763,"regionname":"МО","iso":643,"lat":37.3299,"lng":55.4965},{"cityid":7077209,"cityname":"Вега","continentid":4,"continentname":"Европа","countryid":2017370,"countryname":"Россия","regionid":2145,"regionname":"Татарстан","iso":643,"lat":49.2283,"lng":55.9512},{"cityid":476077,"cityname":"Великие Луки","continentid":4,"continentname":"Европа","countryid":2017370,"countryname":"Россия","regionid":1948,"regionname":"Псковская область","iso":643,"lat":30.5347,"lng":56.34},{"cityid":519336,"cityname":"Великий Новгород","continentid":4,"continentname":"Европа","countryid":2017370,"countryname":"Россия","regionid":1819,"regionname":"Новгородская область","iso":643,"lat":31.2833,"lng":58.5167},{"cityid":1487394,"cityname":"Верхний Уфалей","continentid":4,"continentname":"Европа","countryid":2017370,"countryname":"Россия","regionid":1272,"regionname":"Челябинская область","iso":643,"lat":60.2306,"lng":56.0567},{"cityid":1487277,"cityname":"Верхняя Салда","continentid":4,"continentname":"Европа","countryid":2017370,"countryname":"Россия","regionid":2127,"regionname":"Свердловская область","iso":643,"lat":60.5533,"lng":58.0456},{"cityid":1487219,"cityname":"Верхотурье","continentid":4,"continentname":"Европа","countryid":2017370,"countryname":"Россия","regionid":2127,"regionname":"Свердловская область","iso":643,"lat":60.8054,"lng":58.8627},{"cityid":473778,"cityname":"Видное","continentid":4,"continentname":"Европа","countryid":2017370,"countryname":"Россия","regionid":1763,"regionname":"МО","iso":643,"lat":37.7097,"lng":55.5524},{"cityid":473788,"cityname":"Вичуга","continentid":4,"continentname":"Европа","countryid":2017370,"countryname":"Россия","regionid":1541,"regionname":"Ивановская область","iso":643,"lat":41.9183,"lng":57.2161},{"cityid":2013348,"cityname":"Владивосток","continentid":4,"continentname":"Европа","countryid":2017370,"countryname":"Россия","regionid":1946,"regionname":"Приморский край","iso":643,"lat":131.8735,"lng":43.1056},{"cityid":473249,"cityname":"Владикавказ","continentid":4,"continentname":"Европа","countryid":2017370,"countryname":"Россия","regionid":2053,"regionname":"Северная Осетия","iso":643,"lat":44.6678,"lng":43.0367},{"cityid":473247,"cityname":"Владимир","continentid":4,"continentname":"Европа","countryid":2017370,"countryname":"Россия","regionid":2231,"regionname":"Владимирская область","iso":643,"lat":40.3966,"lng":56.1365},{"cityid":857689,"cityname":"Внуково","continentid":4,"continentname":"Европа","countryid":2017370,"countryname":"Россия","regionid":1763,"regionname":"МО","iso":643,"lat":37.2932,"lng":55.6099},{"cityid":472777,"cityname":"Волга","continentid":4,"continentname":"Европа","countryid":2017370,"countryname":"Россия","regionid":2286,"regionname":"Ярославская область","iso":643,"lat":38.3878,"lng":57.9516},{"cityid":472757,"cityname":"Волгоград","continentid":4,"continentname":"Европа","countryid":2017370,"countryname":"Россия","regionid":2225,"regionname":"Волгоградская область","iso":643,"lat":44.5858,"lng":48.8047},{"cityid":472761,"cityname":"Волгодонск","continentid":4,"continentname":"Европа","countryid":2017370,"countryname":"Россия","regionid":1998,"regionname":"Ростовская область","iso":643,"lat":42.1514,"lng":47.5136},{"cityid":472234,"cityname":"Волжск","continentid":4,"continentname":"Европа","countryid":2017370,"countryname":"Россия","regionid":1732,"regionname":"Марий Эл","iso":643,"lat":48.3594,"lng":55.8664},{"cityid":472231,"cityname":"Волжский","continentid":4,"continentname":"Европа","countryid":2017370,"countryname":"Россия","regionid":2225,"regionname":"Волгоградская область","iso":643,"lat":44.7797,"lng":48.7858},{"cityid":472459,"cityname":"Вологда","continentid":4,"continentname":"Европа","countryid":2017370,"countryname":"Россия","regionid":2233,"regionname":"Вологодская область","iso":643,"lat":39.9,"lng":59.2167},{"cityid":472487,"cityname":"Володарский","continentid":4,"continentname":"Европа","countryid":2017370,"countryname":"Россия","regionid":1763,"regionname":"МО","iso":643,"lat":37.9425,"lng":55.5036},{"cityid":472722,"cityname":"Волхов","continentid":4,"continentname":"Европа","countryid":2017370,"countryname":"Россия","regionid":1668,"regionname":"Ленинградская область","iso":643,"lat":32.3381,"lng":59.9222},{"cityid":1486910,"cityname":"Воркута","continentid":4,"continentname":"Европа","countryid":2017370,"countryname":"Россия","regionid":1618,"regionname":"Коми","iso":643,"lat":64.0525,"lng":67.4988},{"cityid":472045,"cityname":"Воронеж","continentid":4,"continentname":"Европа","countryid":2017370,"countryname":"Россия","regionid":2237,"regionname":"Воронежская область","iso":643,"lat":39.17,"lng":51.6664},{"cityid":471656,"cityname":"Воскресенск","continentid":4,"continentname":"Европа","countryid":2017370,"countryname":"Россия","regionid":1763,"regionname":"МО","iso":643,"lat":38.6636,"lng":55.3125},{"cityid":828197,"cityname":"Восточная","continentid":4,"continentname":"Европа","countryid":2017370,"countryname":"Россия","regionid":1591,"regionname":"Краснодарский край","iso":643,"lat":39.7794,"lng":45.3649},{"cityid":471501,"cityname":"Восточный","continentid":4,"continentname":"Европа","countryid":2017370,"countryname":"Россия","regionid":1764,"regionname":"Москва","iso":643,"lat":37.8667,"lng":55.8167},{"cityid":471430,"cityname":"Воткинск","continentid":4,"continentname":"Европа","countryid":2017370,"countryname":"Россия","regionid":2195,"regionname":"Удмуртия","iso":643,"lat":53.9872,"lng":57.0487},{"cityid":471101,"cityname":"Всеволожск","continentid":4,"continentname":"Европа","countryid":2017370,"countryname":"Россия","regionid":1668,"regionname":"Ленинградская область","iso":643,"lat":30.6756,"lng":60.0153},{"cityid":470845,"cityname":"Вурнары","continentid":4,"continentname":"Европа","countryid":2017370,"countryname":"Россия","regionid":1316,"regionname":"Чувашия","iso":643,"lat":46.9639,"lng":55.4878},{"cityid":470546,"cityname":"Выборг","continentid":4,"continentname":"Европа","countryid":2017370,"countryname":"Россия","regionid":1668,"regionname":"Ленинградская область","iso":643,"lat":28.7528,"lng":60.7076},{"cityid":470444,"cityname":"Выкса","continentid":4,"continentname":"Европа","countryid":2017370,"countryname":"Россия","regionid":1830,"regionname":"Нижегородская область","iso":643,"lat":42.1744,"lng":55.3175},{"cityid":470083,"cityname":"Высоковск","continentid":4,"continentname":"Европа","countryid":2017370,"countryname":"Россия","regionid":1763,"regionname":"МО","iso":643,"lat":36.55,"lng":56.3167},{"cityid":469960,"cityname":"Вытегра","continentid":4,"continentname":"Европа","countryid":2017370,"countryname":"Россия","regionid":2233,"regionname":"Вологодская область","iso":643,"lat":36.4,"lng":61.0},{"cityid":470252,"cityname":"Вышний Волочек","continentid":4,"continentname":"Европа","countryid":2017370,"countryname":"Россия","regionid":2185,"regionname":"Тверская область","iso":643,"lat":34.5645,"lng":57.5912},{"cityid":470666,"cityname":"Вязники","continentid":4,"continentname":"Европа","countryid":2017370,"countryname":"Россия","regionid":2231,"regionname":"Владимирская область","iso":643,"lat":42.1667,"lng":56.25},{"cityid":470748,"cityname":"Вятка","continentid":4,"continentname":"Европа","countryid":2017370,"countryname":"Россия","regionid":1819,"regionname":"Новгородская область","iso":643,"lat":35.6686,"lng":58.4677},{"cityid":2125617,"cityname":"Гавань","continentid":4,"continentname":"Европа","countryid":2017370,"countryname":"Россия","regionid":1603,"regionname":"Хабаровский край","iso":643,"lat":140.1,"lng":51.6167},{"cityid":6643330,"cityname":"Гавань","continentid":4,"continentname":"Европа","countryid":2017370,"countryname":"Россия","regionid":1215,"regionname":"Бурятия","iso":643,"lat":107.7053,"lng":51.8379},{"cityid":562237,"cityname":"Гагарин","continentid":4,"continentname":"Европа","countryid":2017370,"countryname":"Россия","regionid":2088,"regionname":"Смоленская область","iso":643,"lat":34.9967,"lng":55.5458},{"cityid":561887,"cityname":"Гатчина","continentid":4,"continentname":"Европа","countryid":2017370,"countryname":"Россия","regionid":1668,"regionname":"Ленинградская область","iso":643,"lat":30.1283,"lng":59.5764},{"cityid":561667,"cityname":"Геленджик","continentid":4,"continentname":"Европа","countryid":2017370,"countryname":"Россия","regionid":1591,"regionname":"Краснодарский край","iso":643,"lat":38.0747,"lng":44.5731},{"cityid":561627,"cityname":"Георгиевск","continentid":4,"continentname":"Европа","countryid":2017370,"countryname":"Россия","regionid":2116,"regionname":"Ставрополье","iso":643,"lat":43.4697,"lng":44.1519},{"cityid":557657,"cityname":"Гжель","continentid":4,"continentname":"Европа","countryid":2017370,"countryname":"Россия","regionid":1763,"regionname":"МО","iso":643,"lat":38.394,"lng":55.6101},{"cityid":561347,"cityname":"Глазов","continentid":4,"continentname":"Европа","countryid":2017370,"countryname":"Россия","regionid":2195,"regionname":"Удмуртия","iso":643,"lat":52.658,"lng":58.1393},{"cityid":561313,"cityname":"Глазуновка","continentid":4,"continentname":"Европа","countryid":2017370,"countryname":"Россия","regionid":1892,"regionname":"Орловская область","iso":643,"lat":36.3247,"lng":52.5724},{"cityid":804343,"cityname":"Гоголя","continentid":4,"continentname":"Европа","countryid":2017370,"countryname":"Россия","regionid":1591,"regionname":"Краснодарский край","iso":643,"lat":37.9097,"lng":44.9803},{"cityid":560756,"cityname":"Голицыно","continentid":4,"continentname":"Европа","countryid":2017370,"countryname":"Россия","regionid":1763,"regionname":"МО","iso":643,"lat":36.9821,"lng":55.6093},{"cityid":560285,"cityname":"Горбатов","continentid":4,"continentname":"Европа","countryid":2017370,"countryname":"Россия","regionid":1830,"regionname":"Нижегородская область","iso":643,"lat":43.0636,"lng":56.1311},{"cityid":1506271,"cityname":"Горно-Алтайск","continentid":4,"continentname":"Европа","countryid":2017370,"countryname":"Россия","regionid":1080,"regionname":"Алтай","iso":643,"lat":85.955,"lng":51.9561},{"cityid":559752,"cityname":"Горнозаводск","continentid":4,"continentname":"Европа","countryid":2017370,"countryname":"Россия","regionid":1930,"regionname":"Пермский край","iso":643,"lat":58.3211,"lng":58.3758},{"cityid":559678,"cityname":"Городец","continentid":4,"continentname":"Европа","countryid":2017370,"countryname":"Россия","regionid":1830,"regionname":"Нижегородская область","iso":643,"lat":43.475,"lng":56.6514},{"cityid":559560,"cityname":"Городна","continentid":4,"continentname":"Европа","countryid":2017370,"countryname":"Россия","regionid":2180,"regionname":"Тульская область","iso":643,"lat":37.5754,"lng":53.9766},{"cityid":559034,"cityname":"Грайворон","continentid":4,"continentname":"Европа","countryid":2017370,"countryname":"Россия","regionid":1174,"regionname":"Белгородская область","iso":643,"lat":35.6722,"lng":50.4783},{"cityid":1535894,"cityname":"Гранит","continentid":4,"continentname":"Европа","countryid":2017370,"countryname":"Россия","regionid":1860,"regionname":"Новосибирская область","iso":643,"lat":84.6,"lng":55.1467},{"cityid":2023890,"cityname":"Грань","continentid":4,"continentname":"Европа","countryid":2017370,"countryname":"Россия","regionid":1603,"regionname":"Хабаровский край","iso":643,"lat":136.547,"lng":53.2637},{"cityid":558418,"cityname":"Грозный","continentid":4,"continentname":"Европа","countryid":2017370,"countryname":"Россия","regionid":1266,"regionname":"Чечня","iso":643,"lat":45.7003,"lng":43.3083},{"cityid":558146,"cityname":"Губкин","continentid":4,"continentname":"Европа","countryid":2017370,"countryname":"Россия","regionid":1174,"regionname":"Белгородская область","iso":643,"lat":37.5458,"lng":51.2817},{"cityid":1539209,"cityname":"Губкинский","continentid":4,"continentname":"Европа","countryid":2017370,"countryname":"Россия","regionid":2284,"regionname":"Ямало-Ненецкий АО","iso":643,"lat":76.6169,"lng":64.4553},{"cityid":558082,"cityname":"Гуково","continentid":4,"continentname":"Европа","countryid":2017370,"countryname":"Россия","regionid":1998,"regionname":"Ростовская область","iso":643,"lat":39.8737,"lng":48.0242},{"cityid":557882,"cityname":"Гусев","continentid":4,"continentname":"Европа","countryid":2017370,"countryname":"Россия","regionid":1597,"regionname":"Калининградская область","iso":643,"lat":22.1997,"lng":54.5922},{"cityid":566950,"cityname":"Давыдово","continentid":4,"continentname":"Европа","countryid":2017370,"countryname":"Россия","regionid":1763,"regionname":"МО","iso":643,"lat":38.8569,"lng":55.6097},{"cityid":567288,"cityname":"Дагомыс","continentid":4,"continentname":"Европа","countryid":2017370,"countryname":"Россия","regionid":1591,"regionname":"Краснодарский край","iso":643,"lat":39.653,"lng":43.6544},{"cityid":1507565,"cityname":"Далматово","continentid":4,"continentname":"Европа","countryid":2017370,"countryname":"Россия","regionid":1598,"regionname":"Курганская область","iso":643,"lat":62.9244,"lng":56.2553},{"cityid":2025161,"cityname":"Дальнегорск","continentid":4,"continentname":"Европа","countryid":2017370,"countryname":"Россия","regionid":1946,"regionname":"Приморский край","iso":643,"lat":135.5692,"lng":44.5553},{"cityid":2025159,"cityname":"Дальнереченск","continentid":4,"continentname":"Европа","countryid":2017370,"countryname":"Россия","regionid":1946,"regionname":"Приморский край","iso":643,"lat":133.7391,"lng":45.9315},{"cityid":864185,"cityname":"Дамхурц","continentid":4,"continentname":"Европа","countryid":2017370,"countryname":"Россия","regionid":1588,"regionname":"Карачаево-Черкессия","iso":643,"lat":40.7015,"lng":43.6878},{"cityid":567183,"cityname":"Данилов","continentid":4,"continentname":"Европа","countryid":2017370,"countryname":"Россия","regionid":2286,"regionname":"Ярославская область","iso":643,"lat":40.1789,"lng":58.1853},{"cityid":566854,"cityname":"Дедовск","continentid":4,"continentname":"Европа","countryid":2017370,"countryname":"Россия","regionid":1763,"regionname":"МО","iso":643,"lat":37.1222,"lng":55.8686},{"cityid":566789,"cityname":"Дельта","continentid":4,"continentname":"Европа","countryid":2017370,"countryname":"Россия","regionid":1121,"regionname":"Астраханская область","iso":643,"lat":48.0544,"lng":46.6383},{"cityid":2025030,"cityname":"Денисово","continentid":4,"continentname":"Европа","countryid":2017370,"countryname":"Россия","regionid":1537,"regionname":"Иркутская область","iso":643,"lat":100.9361,"lng":55.7956},{"cityid":566532,"cityname":"Дербент","continentid":4,"continentname":"Европа","countryid":2017370,"countryname":"Россия","regionid":1334,"regionname":"Дагестан","iso":643,"lat":48.2903,"lng":42.0558},{"cityid":566384,"cityname":"Десногорск","continentid":4,"continentname":"Европа","countryid":2017370,"countryname":"Россия","regionid":2088,"regionname":"Смоленская область","iso":643,"lat":33.2815,"lng":54.1508},{"cityid":563708,"cityname":"Дзержинск","continentid":4,"continentname":"Европа","countryid":2017370,"countryname":"Россия","regionid":1830,"regionname":"Нижегородская область","iso":643,"lat":43.4631,"lng":56.2389},{"cityid":563705,"cityname":"Дзержинский","continentid":4,"continentname":"Европа","countryid":2017370,"countryname":"Россия","regionid":1763,"regionname":"МО","iso":643,"lat":37.8565,"lng":55.6294},{"cityid":1507379,"cityname":"Дивногорск","continentid":4,"continentname":"Европа","countryid":2017370,"countryname":"Россия","regionid":1640,"regionname":"Красноярский край","iso":643,"lat":92.3619,"lng":55.9594},{"cityid":566153,"cityname":"Диво","continentid":4,"continentname":"Европа","countryid":2017370,"countryname":"Россия","regionid":2088,"regionname":"Смоленская область","iso":643,"lat":31.8111,"lng":55.1889},{"cityid":566199,"cityname":"Димитровград","continentid":4,"continentname":"Европа","countryid":2017370,"countryname":"Россия","regionid":2199,"regionname":"Ульяновская область","iso":643,"lat":49.6184,"lng":54.2139},{"cityid":566181,"cityname":"Динская","continentid":4,"continentname":"Европа","countryid":2017370,"countryname":"Россия","regionid":1591,"regionname":"Краснодарский край","iso":643,"lat":39.2265,"lng":45.2152},{"cityid":565955,"cityname":"Дмитров","continentid":4,"continentname":"Европа","countryid":2017370,"countryname":"Россия","regionid":1763,"regionname":"МО","iso":643,"lat":37.5167,"lng":56.35},{"cityid":565614,"cityname":"Долгопрудный","continentid":4,"continentname":"Европа","countryid":2017370,"countryname":"Россия","regionid":1763,"regionname":"МО","iso":643,"lat":37.5606,"lng":55.9041},{"cityid":565381,"cityname":"Домодедово","continentid":4,"continentname":"Европа","countryid":2017370,"countryname":"Россия","regionid":1763,"regionname":"МО","iso":643,"lat":37.7537,"lng":55.4413},{"cityid":565348,"cityname":"Донецк","continentid":4,"continentname":"Европа","countryid":2017370,"countryname":"Россия","regionid":1998,"regionname":"Ростовская область","iso":643,"lat":39.9558,"lng":48.3403},{"cityid":565007,"cityname":"Дрезна","continentid":4,"continentname":"Европа","countryid":2017370,"countryname":"Россия","regionid":1763,"regionname":"МО","iso":643,"lat":38.8475,"lng":55.7421},{"cityid":564912,"cityname":"Дружба","continentid":4,"continentname":"Европа","countryid":2017370,"countryname":"Россия","regionid":1763,"regionname":"МО","iso":643,"lat":37.7427,"lng":55.886},{"cityid":564816,"cityname":"Дубёнка","continentid":4,"continentname":"Европа","countryid":2017370,"countryname":"Россия","regionid":1614,"regionname":"Калужская область","iso":643,"lat":35.6526,"lng":53.5719},{"cityid":564719,"cityname":"Дубна","continentid":4,"continentname":"Европа","countryid":2017370,"countryname":"Россия","regionid":1763,"regionname":"МО","iso":643,"lat":37.1667,"lng":56.7333},{"cityid":821751,"cityname":"Дубовка","continentid":4,"continentname":"Европа","countryid":2017370,"countryname":"Россия","regionid":2180,"regionname":"Тульская область","iso":643,"lat":38.0081,"lng":53.8203},{"cityid":564487,"cityname":"Дубровка","continentid":4,"continentname":"Европа","countryid":2017370,"countryname":"Россия","regionid":1208,"regionname":"Брянская область","iso":643,"lat":33.5071,"lng":53.6907},{"cityid":564300,"cityname":"Дудинка","continentid":4,"continentname":"Европа","countryid":2017370,"countryname":"Россия","regionid":1892,"regionname":"Орловская область","iso":643,"lat":35.2508,"lng":52.5967},{"cityid":1507116,"cityname":"Дудинка","continentid":4,"continentname":"Европа","countryid":2017370,"countryname":"Россия","regionid":1640,"regionname":"Красноярский край","iso":643,"lat":86.1778,"lng":69.4058},{"cityid":466885,"cityname":"Ейск","continentid":4,"continentname":"Европа","countryid":2017370,"countryname":"Россия","regionid":1591,"regionname":"Краснодарский край","iso":643,"lat":38.2792,"lng":46.6989},{"cityid":1486209,"cityname":"Екатеринбург","continentid":4,"continentname":"Европа","countryid":2017370,"countryname":"Россия","regionid":2127,"regionname":"Свердловская область","iso":643,"lat":60.6125,"lng":56.8575},{"cityid":468082,"cityname":"Елабуга","continentid":4,"continentname":"Европа","countryid":2017370,"countryname":"Россия","regionid":2145,"regionname":"Татарстан","iso":643,"lat":52.0649,"lng":55.7613},{"cityid":2119538,"cityname":"Елизово","continentid":4,"continentname":"Европа","countryid":2017370,"countryname":"Россия","regionid":1582,"regionname":"Камчатский край","iso":643,"lat":158.3813,"lng":53.1891},{"cityid":2119533,"cityname":"Ельники","continentid":4,"continentname":"Европа","countryid":2017370,"countryname":"Россия","regionid":2028,"regionname":"Сахалин","iso":643,"lat":142.8475,"lng":49.6865},{"cityid":1486031,"cityname":"Емельяново","continentid":4,"continentname":"Европа","countryid":2017370,"countryname":"Россия","regionid":1640,"regionname":"Красноярский край","iso":643,"lat":92.6754,"lng":56.1678},{"cityid":466990,"cityname":"Ессентуки","continentid":4,"continentname":"Европа","countryid":2017370,"countryname":"Россия","regionid":2116,"regionname":"Ставрополье","iso":643,"lat":42.8606,"lng":44.0444},{"cityid":463340,"cityname":"Железноводск","continentid":4,"continentname":"Европа","countryid":2017370,"countryname":"Россия","regionid":2116,"regionname":"Ставрополье","iso":643,"lat":43.0197,"lng":44.1394},{"cityid":463343,"cityname":"Железногорск","continentid":4,"continentname":"Европа","countryid":2017370,"countryname":"Россия","regionid":1624,"regionname":"Курская область","iso":643,"lat":35.3711,"lng":52.331},{"cityid":1538635,"cityname":"Железногорск","continentid":4,"continentname":"Европа","countryid":2017370,"countryname":"Россия","regionid":1640,"regionname":"Красноярский край","iso":643,"lat":93.5319,"lng":56.2511},{"cityid":463355,"cityname":"Железнодорожный","continentid":4,"continentname":"Европа","countryid":2017370,"countryname":"Россия","regionid":1763,"regionname":"МО","iso":643,"lat":38.0168,"lng":55.744},{"cityid":463082,"cityname":"Жигулевск","continentid":4,"continentname":"Европа","countryid":2017370,"countryname":"Россия","regionid":2030,"regionname":"Самарская область","iso":643,"lat":49.4953,"lng":53.3997},{"cityid":462984,"cityname":"Жирновск","continentid":4,"continentname":"Европа","countryid":2017370,"countryname":"Россия","regionid":2225,"regionname":"Волгоградская область","iso":643,"lat":44.7735,"lng":50.9845},{"cityid":462755,"cityname":"Жуковский","continentid":4,"continentname":"Европа","countryid":2017370,"countryname":"Россия","regionid":1763,"regionname":"МО","iso":643,"lat":38.1203,"lng":55.5953},{"cityid":7077462,"cityname":"Жуковского","continentid":4,"continentname":"Европа","countryid":2017370,"countryname":"Россия","regionid":2231,"regionname":"Владимирская область","iso":643,"lat":39.8791,"lng":56.1551},{"cityid":1485357,"cityname":"Заводоуковск","continentid":4,"continentname":"Европа","countryid":2017370,"countryname":"Россия","regionid":2187,"regionname":"Тюмень","iso":643,"lat":66.5515,"lng":56.5042},{"cityid":1485354,"cityname":"Заводоуспенское","continentid":4,"continentname":"Европа","countryid":2017370,"countryname":"Россия","regionid":2127,"regionname":"Свердловская область","iso":643,"lat":64.7718,"lng":56.8207},{"cityid":465543,"cityname":"Заинск","continentid":4,"continentname":"Европа","countryid":2017370,"countryname":"Россия","regionid":2145,"regionname":"Татарстан","iso":643,"lat":52.0625,"lng":55.3192},{"cityid":828218,"cityname":"Заозерск","continentid":4,"continentname":"Европа","countryid":2017370,"countryname":"Россия","regionid":1782,"regionname":"Мурманская область","iso":643,"lat":32.4476,"lng":69.4005},{"cityid":464993,"cityname":"Заокский","continentid":4,"continentname":"Европа","countryid":2017370,"countryname":"Россия","regionid":2180,"regionname":"Тульская область","iso":643,"lat":37.4089,"lng":54.7306},{"cityid":464687,"cityname":"Зарайск","continentid":4,"continentname":"Европа","countryid":2017370,"countryname":"Россия","regionid":1763,"regionname":"МО","iso":643,"lat":38.8784,"lng":54.7605},{"cityid":7043838,"cityname":"Зареченский","continentid":4,"continentname":"Европа","countryid":2017370,"countryname":"Россия","regionid":2225,"regionname":"Волгоградская область","iso":643,"lat":44.5758,"lng":48.8107},{"cityid":464629,"cityname":"Заречный","continentid":4,"continentname":"Европа","countryid":2017370,"countryname":"Россия","regionid":1676,"regionname":"Липецкая область","iso":643,"lat":38.0953,"lng":52.1137},{"cityid":1485439,"cityname":"Заринск","continentid":4,"continentname":"Европа","countryid":2017370,"countryname":"Россия","regionid":1084,"regionname":"Алтайский край","iso":643,"lat":84.9493,"lng":53.7074},{"cityid":461920,"cityname":"Звенигород","continentid":4,"continentname":"Европа","countryid":2017370,"countryname":"Россия","regionid":1763,"regionname":"МО","iso":643,"lat":36.8475,"lng":55.7333},{"cityid":463799,"cityname":"Зелёная","continentid":4,"continentname":"Европа","countryid":2017370,"countryname":"Россия","regionid":1607,"regionname":"Кировская область","iso":643,"lat":49.4066,"lng":58.9729},{"cityid":463830,"cityname":"Зеленогорск","continentid":4,"continentname":"Европа","countryid":2017370,"countryname":"Россия","regionid":2105,"regionname":"Санкт-Петербург","iso":643,"lat":29.6944,"lng":60.195},{"cityid":463829,"cityname":"Зеленоград","continentid":4,"continentname":"Европа","countryid":2017370,"countryname":"Россия","regionid":1764,"regionname":"Москва","iso":643,"lat":37.2092,"lng":56.0011},{"cityid":463835,"cityname":"Зеленодольск","continentid":4,"continentname":"Европа","countryid":2017370,"countryname":"Россия","regionid":2145,"regionname":"Татарстан","iso":643,"lat":48.5181,"lng":55.8456},{"cityid":463637,"cityname":"Зерноград","continentid":4,"continentname":"Европа","countryid":2017370,"countryname":"Россия","regionid":1998,"regionname":"Ростовская область","iso":643,"lat":40.3067,"lng":46.8478},{"cityid":462444,"cityname":"Златоуст","continentid":4,"continentname":"Европа","countryid":2017370,"countryname":"Россия","regionid":1272,"regionname":"Челябинская область","iso":643,"lat":59.6508,"lng":55.1711},{"cityid":557643,"cityname":"Ибря","continentid":4,"continentname":"Европа","countryid":2017370,"countryname":"Россия","regionid":2145,"regionname":"Татарстан","iso":643,"lat":49.1997,"lng":56.0303},{"cityid":555624,"cityname":"Ивангород","continentid":4,"continentname":"Европа","countryid":2017370,"countryname":"Россия","regionid":1668,"regionname":"Ленинградская область","iso":643,"lat":28.2167,"lng":59.3667},{"cityid":555532,"cityname":"Иванова","continentid":4,"continentname":"Европа","countryid":2017370,"countryname":"Россия","regionid":2088,"regionname":"Смоленская область","iso":643,"lat":31.4001,"lng":55.4724},{"cityid":555312,"cityname":"Иваново","continentid":4,"continentname":"Европа","countryid":2017370,"countryname":"Россия","regionid":1541,"regionname":"Ивановская область","iso":643,"lat":40.9714,"lng":56.9972},{"cityid":555639,"cityname":"Ивань","continentid":4,"continentname":"Европа","countryid":2017370,"countryname":"Россия","regionid":1892,"regionname":"Орловская область","iso":643,"lat":36.7167,"lng":52.4},{"cityid":554840,"cityname":"Ижевск","continentid":4,"continentname":"Европа","countryid":2017370,"countryname":"Россия","regionid":2195,"regionname":"Удмуртия","iso":643,"lat":53.2333,"lng":56.85},{"cityid":554894,"cityname":"Избербаш","continentid":4,"continentname":"Европа","countryid":2017370,"countryname":"Россия","regionid":1334,"regionname":"Дагестан","iso":643,"lat":47.8636,"lng":42.5633},{"cityid":554791,"cityname":"Измайлово","continentid":4,"continentname":"Европа","countryid":2017370,"countryname":"Россия","regionid":2199,"regionname":"Ульяновская область","iso":643,"lat":47.2458,"lng":53.7211},{"cityid":2023669,"cityname":"Илим","continentid":4,"continentname":"Европа","countryid":2017370,"countryname":"Россия","regionid":2304,"regionname":"Забайкальский Край","iso":643,"lat":116.0667,"lng":52.2167},{"cityid":2023624,"cityname":"Иля","continentid":4,"continentname":"Европа","countryid":2017370,"countryname":"Россия","regionid":2304,"regionname":"Забайкальский Край","iso":643,"lat":113.5897,"lng":50.8456},{"cityid":556464,"cityname":"Имени Воровского","continentid":4,"continentname":"Европа","countryid":2017370,"countryname":"Россия","regionid":2231,"regionname":"Владимирская область","iso":643,"lat":40.6667,"lng":55.6167},{"cityid":556318,"cityname":"Инсар","continentid":4,"continentname":"Европа","countryid":2017370,"countryname":"Россия","regionid":1757,"regionname":"Мордовия","iso":643,"lat":44.37,"lng":53.8706},{"cityid":466806,"cityname":"Йошкар-Ола","continentid":4,"continentname":"Европа","countryid":2017370,"countryname":"Россия","regionid":1732,"regionname":"Марий Эл","iso":643,"lat":47.8908,"lng":56.6388},{"cityid":2023469,"cityname":"Иркутск","continentid":4,"continentname":"Европа","countryid":2017370,"countryname":"Россия","regionid":1537,"regionname":"Иркутская область","iso":643,"lat":104.2964,"lng":52.2978},{"cityid":1505429,"cityname":"Искитим","continentid":4,"continentname":"Европа","countryid":2017370,"countryname":"Россия","regionid":1860,"regionname":"Новосибирская область","iso":643,"lat":83.2917,"lng":54.6386},{"cityid":555746,"cityname":"Истра","continentid":4,"continentname":"Европа","countryid":2017370,"countryname":"Россия","regionid":1763,"regionname":"МО","iso":643,"lat":36.8642,"lng":55.9178},{"cityid":555984,"cityname":"Ишеевка","continentid":4,"continentname":"Европа","countryid":2017370,"countryname":"Россия","regionid":2199,"regionname":"Ульяновская область","iso":643,"lat":48.2667,"lng":54.4279},{"cityid":1505453,"cityname":"Ишим","continentid":4,"continentname":"Европа","countryid":2017370,"countryname":"Россия","regionid":2187,"regionname":"Тюмень","iso":643,"lat":69.45,"lng":56.15},{"cityid":555980,"cityname":"Ишимбай","continentid":4,"continentname":"Европа","countryid":2017370,"countryname":"Россия","regionid":1155,"regionname":"Башкортостан","iso":643,"lat":56.0415,"lng":53.4545},{"cityid":801734,"cityname":"Кабардино","continentid":4,"continentname":"Европа","countryid":2017370,"countryname":"Россия","regionid":1587,"regionname":"Кабардино-Балкария","iso":643,"lat":44.1022,"lng":43.9264},{"cityid":551673,"cityname":"Кавказ","continentid":4,"continentname":"Европа","countryid":2017370,"countryname":"Россия","regionid":1591,"regionname":"Краснодарский край","iso":643,"lat":36.6811,"lng":45.3422},{"cityid":6422093,"cityname":"Казань","continentid":4,"continentname":"Европа","countryid":2017370,"countryname":"Россия","regionid":1607,"regionname":"Кировская область","iso":643,"lat":48.5103,"lng":57.8766},{"cityid":551487,"cityname":"Казань","continentid":4,"continentname":"Европа","countryid":2017370,"countryname":"Россия","regionid":2145,"regionname":"Татарстан","iso":643,"lat":49.1221,"lng":55.7887},{"cityid":8246754,"cityname":"Калинина","continentid":4,"continentname":"Европа","countryid":2017370,"countryname":"Россия","regionid":1930,"regionname":"Пермский край","iso":643,"lat":54.4035,"lng":58.7276},{"cityid":554234,"cityname":"Калининград","continentid":4,"continentname":"Европа","countryid":2017370,"countryname":"Россия","regionid":1597,"regionname":"Калининградская область","iso":643,"lat":20.511,"lng":54.7065},{"cityid":8142155,"cityname":"Калининский","continentid":4,"continentname":"Европа","countryid":2017370,"countryname":"Россия","regionid":2145,"regionname":"Татарстан","iso":643,"lat":49.1386,"lng":55.7496},{"cityid":553915,"cityname":"Калуга","continentid":4,"continentname":"Европа","countryid":2017370,"countryname":"Россия","regionid":1614,"regionname":"Калужская область","iso":643,"lat":36.2706,"lng":54.5358},{"cityid":553399,"cityname":"Каменск","continentid":4,"continentname":"Европа","countryid":2017370,"countryname":"Россия","regionid":1998,"regionname":"Ростовская область","iso":643,"lat":40.2595,"lng":48.3178},{"cityid":2023225,"cityname":"Каменск","continentid":4,"continentname":"Европа","countryid":2017370,"countryname":"Россия","regionid":1215,"regionname":"Бурятия","iso":643,"lat":106.6,"lng":51.9667},{"cityid":1504826,"cityname":"Каменск-Уральский","continentid":4,"continentname":"Европа","countryid":2017370,"countryname":"Россия","regionid":2127,"regionname":"Свердловская область","iso":643,"lat":61.9278,"lng":56.4056},{"cityid":1504871,"cityname":"Камень-на-Оби","continentid":4,"continentname":"Европа","countryid":2017370,"countryname":"Россия","regionid":1084,"regionname":"Алтайский край","iso":643,"lat":81.34,"lng":53.7933},{"cityid":1504924,"cityname":"Камчатка","continentid":4,"continentname":"Европа","countryid":2017370,"countryname":"Россия","regionid":1598,"regionname":"Курганская область","iso":643,"lat":63.7014,"lng":55.8894},{"cityid":553287,"cityname":"Камышин","continentid":4,"continentname":"Европа","countryid":2017370,"countryname":"Россия","regionid":2225,"regionname":"Волгоградская область","iso":643,"lat":45.4,"lng":50.1},{"cityid":553207,"cityname":"Канавка","continentid":4,"continentname":"Европа","countryid":2017370,"countryname":"Россия","regionid":2034,"regionname":"Саратовская область","iso":643,"lat":48.5491,"lng":50.3878},{"cityid":553216,"cityname":"Канаш","continentid":4,"continentname":"Европа","countryid":2017370,"countryname":"Россия","regionid":1316,"regionname":"Чувашия","iso":643,"lat":47.4956,"lng":55.5086},{"cityid":553190,"cityname":"Кандалакша","continentid":4,"continentname":"Европа","countryid":2017370,"countryname":"Россия","regionid":1782,"regionname":"Мурманская область","iso":643,"lat":32.046,"lng":66.978},{"cityid":1504682,"cityname":"Канск","continentid":4,"continentname":"Европа","countryid":2017370,"countryname":"Россия","regionid":1640,"regionname":"Красноярский край","iso":643,"lat":95.7175,"lng":56.2017},{"cityid":552862,"cityname":"Караидель","continentid":4,"continentname":"Европа","countryid":2017370,"countryname":"Россия","regionid":1155,"regionname":"Башкортостан","iso":643,"lat":56.9069,"lng":55.8337},{"cityid":552920,"cityname":"Карачев","continentid":4,"continentname":"Европа","countryid":2017370,"countryname":"Россия","regionid":1208,"regionname":"Брянская область","iso":643,"lat":34.9852,"lng":53.1229},{"cityid":2023127,"cityname":"Карла Маркса","continentid":4,"continentname":"Европа","countryid":2017370,"countryname":"Россия","regionid":2023,"regionname":"Саха (Якутия)","iso":643,"lat":131.3667,"lng":60.6},{"cityid":1504317,"cityname":"Карталы","continentid":4,"continentname":"Европа","countryid":2017370,"countryname":"Россия","regionid":1272,"regionname":"Челябинская область","iso":643,"lat":60.649,"lng":53.0528},{"cityid":551891,"cityname":"Касимов","continentid":4,"continentname":"Европа","countryid":2017370,"countryname":"Россия","regionid":2004,"regionname":"Рязанская область","iso":643,"lat":41.3364,"lng":54.9027},{"cityid":551847,"cityname":"Каспийск","continentid":4,"continentname":"Европа","countryid":2017370,"countryname":"Россия","regionid":1334,"regionname":"Дагестан","iso":643,"lat":47.6392,"lng":42.8816},{"cityid":554599,"cityname":"Качканар","continentid":4,"continentname":"Европа","countryid":2017370,"countryname":"Россия","regionid":2127,"regionname":"Свердловская область","iso":643,"lat":59.49,"lng":58.6994},{"cityid":551964,"cityname":"Кашира","continentid":4,"continentname":"Европа","countryid":2017370,"countryname":"Россия","regionid":1763,"regionname":"МО","iso":643,"lat":38.1669,"lng":54.8444},{"cityid":551183,"cityname":"Кельдыш","continentid":4,"continentname":"Европа","countryid":2017370,"countryname":"Россия","regionid":2195,"regionname":"Удмуртия","iso":643,"lat":54.0552,"lng":57.418},{"cityid":1503901,"cityname":"Кемерово","continentid":4,"continentname":"Европа","countryid":2017370,"countryname":"Россия","regionid":1595,"regionname":"Кемеровская область","iso":643,"lat":86.0833,"lng":55.3333},{"cityid":547840,"cityname":"Кизляр","continentid":4,"continentname":"Европа","countryid":2017370,"countryname":"Россия","regionid":1334,"regionname":"Дагестан","iso":643,"lat":46.715,"lng":43.8469},{"cityid":548652,"cityname":"Кимры","continentid":4,"continentname":"Европа","countryid":2017370,"countryname":"Россия","regionid":2185,"regionname":"Тверская область","iso":643,"lat":37.35,"lng":56.8667},{"cityid":548602,"cityname":"Кингисепп","continentid":4,"continentname":"Европа","countryid":2017370,"countryname":"Россия","regionid":1668,"regionname":"Ленинградская область","iso":643,"lat":28.6134,"lng":59.3733},{"cityid":548625,"cityname":"Кинель","continentid":4,"continentname":"Европа","countryid":2017370,"countryname":"Россия","regionid":2030,"regionname":"Самарская область","iso":643,"lat":50.6291,"lng":53.2257},{"cityid":548605,"cityname":"Кинешма","continentid":4,"continentname":"Европа","countryid":2017370,"countryname":"Россия","regionid":1541,"regionname":"Ивановская область","iso":643,"lat":42.1164,"lng":57.4517},{"cityid":548279,"cityname":"Киржач","continentid":4,"continentname":"Европа","countryid":2017370,"countryname":"Россия","regionid":2231,"regionname":"Владимирская область","iso":643,"lat":39.0667,"lng":55.9},{"cityid":548442,"cityname":"Кириши","continentid":4,"continentname":"Европа","countryid":2017370,"countryname":"Россия","regionid":1668,"regionname":"Ленинградская область","iso":643,"lat":32.0211,"lng":59.45},{"cityid":796567,"cityname":"Киров","continentid":4,"continentname":"Европа","countryid":2017370,"countryname":"Россия","regionid":2116,"regionname":"Ставрополье","iso":643,"lat":44.2119,"lng":44.0631},{"cityid":548408,"cityname":"Киров","continentid":4,"continentname":"Европа","countryid":2017370,"countryname":"Россия","regionid":1607,"regionname":"Кировская область","iso":643,"lat":49.6583,"lng":58.5969},{"cityid":548410,"cityname":"Киров","continentid":4,"continentname":"Европа","countryid":2017370,"countryname":"Россия","regionid":1614,"regionname":"Калужская область","iso":643,"lat":0.0,"lng":0.0},{"cityid":875343,"cityname":"Кирова","continentid":4,"continentname":"Европа","countryid":2017370,"countryname":"Россия","regionid":1930,"regionname":"Пермский край","iso":643,"lat":56.9977,"lng":57.3856},{"cityid":1503335,"cityname":"Кировград","continentid":4,"continentname":"Европа","countryid":2017370,"countryname":"Россия","regionid":2127,"regionname":"Свердловская область","iso":643,"lat":60.0597,"lng":57.4297},{"cityid":548392,"cityname":"Кировск","continentid":4,"continentname":"Европа","countryid":2017370,"countryname":"Россия","regionid":1668,"regionname":"Ленинградская область","iso":643,"lat":30.9951,"lng":59.881},{"cityid":548391,"cityname":"Кировск","continentid":4,"continentname":"Европа","countryid":2017370,"countryname":"Россия","regionid":1782,"regionname":"Мурманская область","iso":643,"lat":33.6719,"lng":67.6144},{"cityid":548261,"cityname":"Киселев","continentid":4,"continentname":"Европа","countryid":2017370,"countryname":"Россия","regionid":2225,"regionname":"Волгоградская область","iso":643,"lat":42.8003,"lng":48.8692},{"cityid":1503277,"cityname":"Киселевск","continentid":4,"continentname":"Европа","countryid":2017370,"countryname":"Россия","regionid":1595,"regionname":"Кемеровская область","iso":643,"lat":86.6621,"lng":53.99},{"cityid":548114,"cityname":"Кисловодск","continentid":4,"continentname":"Европа","countryid":2017370,"countryname":"Россия","regionid":2116,"regionname":"Ставрополье","iso":643,"lat":42.7333,"lng":43.9333},{"cityid":547560,"cityname":"Климовск","continentid":4,"continentname":"Европа","countryid":2017370,"countryname":"Россия","regionid":1763,"regionname":"МО","iso":643,"lat":37.525,"lng":55.3647},{"cityid":547523,"cityname":"Клин","continentid":4,"continentname":"Европа","countryid":2017370,"countryname":"Россия","regionid":1763,"regionname":"МО","iso":643,"lat":36.7333,"lng":56.3333},{"cityid":547475,"cityname":"Клинцы","continentid":4,"continentname":"Европа","countryid":2017370,"countryname":"Россия","regionid":1208,"regionname":"Брянская область","iso":643,"lat":32.2344,"lng":52.7631},{"cityid":2021969,"cityname":"Ключи","continentid":4,"continentname":"Европа","countryid":2017370,"countryname":"Россия","regionid":2304,"regionname":"Забайкальский Край","iso":643,"lat":108.7333,"lng":51.4},{"cityid":543508,"cityname":"Ковдор","continentid":4,"continentname":"Европа","countryid":2017370,"countryname":"Россия","regionid":1782,"regionname":"Мурманская область","iso":643,"lat":30.4758,"lng":67.5662},{"cityid":543460,"cityname":"Ковров","continentid":4,"continentname":"Европа","countryid":2017370,"countryname":"Россия","regionid":2231,"regionname":"Владимирская область","iso":643,"lat":41.3192,"lng":56.3572},{"cityid":1503037,"cityname":"Кодинск","continentid":4,"continentname":"Европа","countryid":2017370,"countryname":"Россия","regionid":1640,"regionname":"Красноярский край","iso":643,"lat":99.1844,"lng":58.6881},{"cityid":543348,"cityname":"Козельск","continentid":4,"continentname":"Европа","countryid":2017370,"countryname":"Россия","regionid":1614,"regionname":"Калужская область","iso":643,"lat":35.775,"lng":54.0369},{"cityid":546554,"cityname":"Кола","continentid":4,"continentname":"Европа","countryid":2017370,"countryname":"Россия","regionid":1782,"regionname":"Мурманская область","iso":643,"lat":33.0184,"lng":68.8806},{"cityid":546230,"cityname":"Коломна","continentid":4,"continentname":"Европа","countryid":2017370,"countryname":"Россия","regionid":1763,"regionname":"МО","iso":643,"lat":38.7783,"lng":55.0794},{"cityid":1502862,"cityname":"Колпашево","continentid":4,"continentname":"Европа","countryid":2017370,"countryname":"Россия","regionid":2174,"regionname":"Томская область","iso":643,"lat":82.9089,"lng":58.3131},{"cityid":546105,"cityname":"Колпино","continentid":4,"continentname":"Европа","countryid":2017370,"countryname":"Россия","regionid":2105,"regionname":"Санкт-Петербург","iso":643,"lat":30.5794,"lng":59.7442},{"cityid":1502847,"cityname":"Кольцово","continentid":4,"continentname":"Европа","countryid":2017370,"countryname":"Россия","regionid":1860,"regionname":"Новосибирская область","iso":643,"lat":83.1825,"lng":54.9376},{"cityid":546521,"cityname":"Кольчугино","continentid":4,"continentname":"Европа","countryid":2017370,"countryname":"Россия","regionid":2231,"regionname":"Владимирская область","iso":643,"lat":39.3833,"lng":56.3},{"cityid":545930,"cityname":"Комаров","continentid":4,"continentname":"Европа","countryid":2017370,"countryname":"Россия","regionid":2225,"regionname":"Волгоградская область","iso":643,"lat":42.712,"lng":47.9049},{"cityid":545837,"cityname":"Коминтерн","continentid":4,"continentname":"Европа","countryid":2017370,"countryname":"Россия","regionid":1998,"regionname":"Ростовская область","iso":643,"lat":39.8515,"lng":48.006},{"cityid":545788,"cityname":"Коммунар","continentid":4,"continentname":"Европа","countryid":2017370,"countryname":"Россия","regionid":1668,"regionname":"Ленинградская область","iso":643,"lat":30.39,"lng":59.6206},{"cityid":545736,"cityname":"Комсомольск","continentid":4,"continentname":"Европа","countryid":2017370,"countryname":"Россия","regionid":1541,"regionname":"Ивановская область","iso":643,"lat":40.3714,"lng":57.0297},{"cityid":2021851,"cityname":"Комсомольск-на-Амуре","continentid":4,"continentname":"Европа","countryid":2017370,"countryname":"Россия","regionid":1603,"regionname":"Хабаровский край","iso":643,"lat":137.01,"lng":50.5503},{"cityid":545673,"cityname":"Конаково","continentid":4,"continentname":"Европа","countryid":2017370,"countryname":"Россия","regionid":2185,"regionname":"Тверская область","iso":643,"lat":36.7667,"lng":56.7},{"cityid":545626,"cityname":"Кондопога","continentid":4,"continentname":"Европа","countryid":2017370,"countryname":"Россия","regionid":1623,"regionname":"Карелия","iso":643,"lat":34.2614,"lng":62.2057},{"cityid":545353,"cityname":"Коноша","continentid":4,"continentname":"Европа","countryid":2017370,"countryname":"Россия","regionid":1114,"regionname":"Архангельская область","iso":643,"lat":40.2564,"lng":60.9686},{"cityid":1502603,"cityname":"Копейск","continentid":4,"continentname":"Европа","countryid":2017370,"countryname":"Россия","regionid":1272,"regionname":"Челябинская область","iso":643,"lat":61.6469,"lng":55.1117},{"cityid":545062,"cityname":"Коптюга","continentid":4,"continentname":"Европа","countryid":2017370,"countryname":"Россия","regionid":1618,"regionname":"Коми","iso":643,"lat":46.4308,"lng":64.2257},{"cityid":1502536,"cityname":"Коркино","continentid":4,"continentname":"Европа","countryid":2017370,"countryname":"Россия","regionid":1272,"regionname":"Челябинская область","iso":643,"lat":61.3964,"lng":54.8939},{"cityid":554233,"cityname":"Королёв","continentid":4,"continentname":"Европа","countryid":2017370,"countryname":"Россия","regionid":1763,"regionname":"МО","iso":643,"lat":37.8281,"lng":55.9197},{"cityid":2124286,"cityname":"Корсаков","continentid":4,"continentname":"Европа","countryid":2017370,"countryname":"Россия","regionid":2028,"regionname":"Сахалин","iso":643,"lat":142.7772,"lng":46.6342},{"cityid":544370,"cityname":"Коряжма","continentid":4,"continentname":"Европа","countryid":2017370,"countryname":"Россия","regionid":1114,"regionname":"Архангельская область","iso":643,"lat":47.1286,"lng":61.3133},{"cityid":6269003,"cityname":"Костеники","continentid":4,"continentname":"Европа","countryid":2017370,"countryname":"Россия","regionid":1607,"regionname":"Кировская область","iso":643,"lat":50.7514,"lng":58.4103},{"cityid":543899,"cityname":"Костомукша","continentid":4,"continentname":"Европа","countryid":2017370,"countryname":"Россия","regionid":1623,"regionname":"Карелия","iso":643,"lat":30.5767,"lng":64.571},{"cityid":543878,"cityname":"Кострома","continentid":4,"continentname":"Европа","countryid":2017370,"countryname":"Россия","regionid":1619,"regionname":"Костромская область","iso":643,"lat":40.9344,"lng":57.7708},{"cityid":543731,"cityname":"Котельники","continentid":4,"continentname":"Европа","countryid":2017370,"countryname":"Россия","regionid":1763,"regionname":"МО","iso":643,"lat":37.8644,"lng":55.6508},{"cityid":543737,"cityname":"Котельнич","continentid":4,"continentname":"Европа","countryid":2017370,"countryname":"Россия","regionid":1607,"regionname":"Кировская область","iso":643,"lat":48.3181,"lng":58.3078},{"cityid":543704,"cityname":"Котлас","continentid":4,"continentname":"Европа","countryid":2017370,"countryname":"Россия","regionid":1114,"regionname":"Архангельская область","iso":643,"lat":46.6496,"lng":61.2575},{"cityid":542841,"cityname":"Красково","continentid":4,"continentname":"Европа","countryid":2017370,"countryname":"Россия","regionid":1763,"regionname":"МО","iso":643,"lat":37.9878,"lng":55.6497},{"cityid":542464,"cityname":"Красноармейск","continentid":4,"continentname":"Европа","countryid":2017370,"countryname":"Россия","regionid":2034,"regionname":"Саратовская область","iso":643,"lat":45.6969,"lng":51.0239},{"cityid":542463,"cityname":"Красноармейск","continentid":4,"continentname":"Европа","countryid":2017370,"countryname":"Россия","regionid":1763,"regionname":"МО","iso":643,"lat":38.1333,"lng":56.1},{"cityid":1502100,"cityname":"Красногвардейский","continentid":4,"continentname":"Европа","countryid":2017370,"countryname":"Россия","regionid":2127,"regionname":"Свердловская область","iso":643,"lat":62.3195,"lng":57.3793},{"cityid":542374,"cityname":"Красногорск","continentid":4,"continentname":"Европа","countryid":2017370,"countryname":"Россия","regionid":1763,"regionname":"МО","iso":643,"lat":37.3181,"lng":55.8225},{"cityid":542420,"cityname":"Краснодар","continentid":4,"continentname":"Европа","countryid":2017370,"countryname":"Россия","regionid":1591,"regionname":"Краснодарский край","iso":643,"lat":38.9769,"lng":45.0328},{"cityid":6417459,"cityname":"Краснознаменск","continentid":4,"continentname":"Европа","countryid":2017370,"countryname":"Россия","regionid":1763,"regionname":"МО","iso":643,"lat":37.0386,"lng":55.5994},{"cityid":2021618,"cityname":"Краснокаменск","continentid":4,"continentname":"Европа","countryid":2017370,"countryname":"Россия","regionid":2304,"regionname":"Забайкальский Край","iso":643,"lat":118.1481,"lng":50.0661},{"cityid":542327,"cityname":"Краснокамск","continentid":4,"continentname":"Европа","countryid":2017370,"countryname":"Россия","regionid":1930,"regionname":"Пермский край","iso":643,"lat":55.7453,"lng":58.0714},{"cityid":1502091,"cityname":"Краснообск","continentid":4,"continentname":"Европа","countryid":2017370,"countryname":"Россия","regionid":1860,"regionname":"Новосибирская область","iso":643,"lat":82.9909,"lng":54.9198},{"cityid":1502063,"cityname":"Краснотуранск","continentid":4,"continentname":"Европа","countryid":2017370,"countryname":"Россия","regionid":1640,"regionname":"Красноярский край","iso":643,"lat":91.7272,"lng":54.28},{"cityid":1502061,"cityname":"Краснотурьинск","continentid":4,"continentname":"Европа","countryid":2017370,"countryname":"Россия","regionid":2127,"regionname":"Свердловская область","iso":643,"lat":60.2086,"lng":59.7666},{"cityid":1502060,"cityname":"Красноуральск","continentid":4,"continentname":"Европа","countryid":2017370,"countryname":"Россия","regionid":2127,"regionname":"Свердловская область","iso":643,"lat":0.0,"lng":0.0},{"cityid":542199,"cityname":"Красноуфимск","continentid":4,"continentname":"Европа","countryid":2017370,"countryname":"Россия","regionid":2127,"regionname":"Свердловская область","iso":643,"lat":57.7558,"lng":56.6047},{"cityid":1502026,"cityname":"Красноярск","continentid":4,"continentname":"Европа","countryid":2017370,"countryname":"Россия","regionid":1640,"regionname":"Красноярский край","iso":643,"lat":92.7917,"lng":56.0097},{"cityid":541286,"cityname":"Кратово","continentid":4,"continentname":"Европа","countryid":2017370,"countryname":"Россия","regionid":1763,"regionname":"МО","iso":643,"lat":38.2047,"lng":55.5869},{"cityid":541235,"cityname":"Кременки","continentid":4,"continentname":"Европа","countryid":2017370,"countryname":"Россия","regionid":1614,"regionname":"Калужская область","iso":643,"lat":37.1261,"lng":54.885},{"cityid":8464749,"cityname":"Кристалл","continentid":4,"continentname":"Европа","countryid":2017370,"countryname":"Россия","regionid":1882,"regionname":"Омская область","iso":643,"lat":73.3062,"lng":54.9849},{"cityid":540776,"cityname":"Кромы","continentid":4,"continentname":"Европа","countryid":2017370,"countryname":"Россия","regionid":1892,"regionname":"Орловская область","iso":643,"lat":35.7666,"lng":52.6876},{"cityid":540761,"cityname":"Кропоткин","continentid":4,"continentname":"Европа","countryid":2017370,"countryname":"Россия","regionid":1591,"regionname":"Краснодарский край","iso":643,"lat":40.5756,"lng":45.4375},{"cityid":540259,"cityname":"Крым","continentid":4,"continentname":"Европа","countryid":2017370,"countryname":"Россия","regionid":1998,"regionname":"Ростовская область","iso":643,"lat":39.5164,"lng":47.3002},{"cityid":540103,"cityname":"Кстово","continentid":4,"continentname":"Европа","countryid":2017370,"countryname":"Россия","regionid":1830,"regionname":"Нижегородская область","iso":643,"lat":44.1831,"lng":56.1697},{"cityid":540075,"cityname":"Кубань","continentid":4,"continentname":"Европа","countryid":2017370,"countryname":"Россия","regionid":1591,"regionname":"Краснодарский край","iso":643,"lat":40.4105,"lng":45.3539},{"cityid":540030,"cityname":"Кубинка","continentid":4,"continentname":"Европа","countryid":2017370,"countryname":"Россия","regionid":1763,"regionname":"МО","iso":643,"lat":36.69,"lng":55.5839},{"cityid":1501079,"cityname":"Кузнецк","continentid":4,"continentname":"Европа","countryid":2017370,"countryname":"Россия","regionid":1595,"regionname":"Кемеровская область","iso":643,"lat":87.1,"lng":53.75},{"cityid":537737,"cityname":"Кузнецк","continentid":4,"continentname":"Европа","countryid":2017370,"countryname":"Россия","regionid":1941,"regionname":"Пензенская область","iso":643,"lat":46.6004,"lng":53.1168},{"cityid":539478,"cityname":"Куликов","continentid":4,"continentname":"Европа","countryid":2017370,"countryname":"Россия","regionid":2225,"regionname":"Волгоградская область","iso":643,"lat":45.7667,"lng":49.5833},{"cityid":539283,"cityname":"Кумертау","continentid":4,"continentname":"Европа","countryid":2017370,"countryname":"Россия","regionid":1155,"regionname":"Башкортостан","iso":643,"lat":55.7833,"lng":52.7667},{"cityid":539147,"cityname":"Кунгур","continentid":4,"continentname":"Европа","countryid":2017370,"countryname":"Россия","regionid":1930,"regionname":"Пермский край","iso":643,"lat":56.9593,"lng":57.4368},{"cityid":539069,"cityname":"Купавна","continentid":4,"continentname":"Европа","countryid":2017370,"countryname":"Россия","regionid":1763,"regionname":"МО","iso":643,"lat":38.1314,"lng":55.7458},{"cityid":1501321,"cityname":"Курган","continentid":4,"continentname":"Европа","countryid":2017370,"countryname":"Россия","regionid":1598,"regionname":"Курганская область","iso":643,"lat":65.3333,"lng":55.45},{"cityid":538560,"cityname":"Курск","continentid":4,"continentname":"Европа","countryid":2017370,"countryname":"Россия","regionid":1624,"regionname":"Курская область","iso":643,"lat":36.1939,"lng":51.7303},{"cityid":538908,"cityname":"Курчатов","continentid":4,"continentname":"Европа","countryid":2017370,"countryname":"Россия","regionid":1624,"regionname":"Курская область","iso":643,"lat":35.6521,"lng":51.6601},{"cityid":538340,"cityname":"Кушва","continentid":4,"continentname":"Европа","countryid":2017370,"countryname":"Россия","regionid":2127,"regionname":"Свердловская область","iso":643,"lat":59.7528,"lng":58.2922},{"cityid":538368,"cityname":"Кушнарёнково","continentid":4,"continentname":"Европа","countryid":2017370,"countryname":"Россия","regionid":1155,"regionname":"Башкортостан","iso":643,"lat":55.3508,"lng":55.105},{"cityid":1500997,"cityname":"Кыштым","continentid":4,"continentname":"Европа","countryid":2017370,"countryname":"Россия","regionid":1272,"regionname":"Челябинская область","iso":643,"lat":60.5528,"lng":55.714},{"cityid":537281,"cityname":"Лабинск","continentid":4,"continentname":"Европа","countryid":2017370,"countryname":"Россия","regionid":1591,"regionname":"Краснодарский край","iso":643,"lat":40.7356,"lng":44.6342},{"cityid":1500933,"cityname":"Лабытнанги","continentid":4,"continentname":"Европа","countryid":2017370,"countryname":"Россия","regionid":2284,"regionname":"Ямало-Ненецкий АО","iso":643,"lat":66.4183,"lng":66.6572},{"cityid":537263,"cityname":"Лада","continentid":4,"continentname":"Европа","countryid":2017370,"countryname":"Россия","regionid":2034,"regionname":"Саратовская область","iso":643,"lat":43.7753,"lng":51.6407},{"cityid":536638,"cityname":"Лазарево","continentid":4,"continentname":"Европа","countryid":2017370,"countryname":"Россия","regionid":1607,"regionname":"Кировская область","iso":643,"lat":50.2042,"lng":56.8249},{"cityid":2020887,"cityname":"Лазо","continentid":4,"continentname":"Европа","countryid":2017370,"countryname":"Россия","regionid":1946,"regionname":"Приморский край","iso":643,"lat":133.6502,"lng":45.8705},{"cityid":537107,"cityname":"Лакинск","continentid":4,"continentname":"Европа","countryid":2017370,"countryname":"Россия","regionid":2231,"regionname":"Владимирская область","iso":643,"lat":39.95,"lng":56.0167},{"cityid":536578,"cityname":"Лебедев","continentid":4,"continentname":"Европа","countryid":2017370,"countryname":"Россия","regionid":2225,"regionname":"Волгоградская область","iso":643,"lat":44.0,"lng":49.3167},{"cityid":536420,"cityname":"Ледмозеро","continentid":4,"continentname":"Европа","countryid":2017370,"countryname":"Россия","regionid":1623,"regionname":"Карелия","iso":643,"lat":32.004,"lng":64.3075},{"cityid":536219,"cityname":"Ленина","continentid":4,"continentname":"Европа","countryid":2017370,"countryname":"Россия","regionid":1591,"regionname":"Краснодарский край","iso":643,"lat":39.7833,"lng":46.0667},{"cityid":536200,"cityname":"Ленинградская","continentid":4,"continentname":"Европа","countryid":2017370,"countryname":"Россия","regionid":1591,"regionname":"Краснодарский край","iso":643,"lat":39.3903,"lng":46.3142},{"cityid":1500702,"cityname":"Ленинградский","continentid":4,"continentname":"Европа","countryid":2017370,"countryname":"Россия","regionid":1860,"regionname":"Новосибирская область","iso":643,"lat":79.2375,"lng":54.1281},{"cityid":536162,"cityname":"Лениногорск","continentid":4,"continentname":"Европа","countryid":2017370,"countryname":"Россия","regionid":2145,"regionname":"Татарстан","iso":643,"lat":52.5,"lng":54.6},{"cityid":536156,"cityname":"Ленинск","continentid":4,"continentname":"Европа","countryid":2017370,"countryname":"Россия","regionid":2225,"regionname":"Волгоградская область","iso":643,"lat":45.1994,"lng":48.7119},{"cityid":1500690,"cityname":"Ленинское","continentid":4,"continentname":"Европа","countryid":2017370,"countryname":"Россия","regionid":1860,"regionname":"Новосибирская область","iso":643,"lat":82.8563,"lng":54.8158},{"cityid":536022,"cityname":"Ленкино","continentid":4,"continentname":"Европа","countryid":2017370,"countryname":"Россия","regionid":2088,"regionname":"Смоленская область","iso":643,"lat":33.6206,"lng":54.8924},{"cityid":535886,"cityname":"Лермонтов","continentid":4,"continentname":"Европа","countryid":2017370,"countryname":"Россия","regionid":2116,"regionname":"Ставрополье","iso":643,"lat":42.9733,"lng":44.1067},{"cityid":535740,"cityname":"Лесной","continentid":4,"continentname":"Европа","countryid":2017370,"countryname":"Россия","regionid":1930,"regionname":"Пермский край","iso":643,"lat":55.8282,"lng":57.2508},{"cityid":829005,"cityname":"Лесной","continentid":4,"continentname":"Европа","countryid":2017370,"countryname":"Россия","regionid":2127,"regionname":"Свердловская область","iso":643,"lat":59.8022,"lng":58.6367},{"cityid":2020812,"cityname":"Лесозаводск","continentid":4,"continentname":"Европа","countryid":2017370,"countryname":"Россия","regionid":1946,"regionname":"Приморский край","iso":643,"lat":133.4282,"lng":45.4789},{"cityid":534701,"cityname":"Ливны","continentid":4,"continentname":"Европа","countryid":2017370,"countryname":"Россия","regionid":1892,"regionname":"Орловская область","iso":643,"lat":37.6069,"lng":52.4253},{"cityid":535243,"cityname":"Ликино-Дулево","continentid":4,"continentname":"Европа","countryid":2017370,"countryname":"Россия","regionid":1763,"regionname":"МО","iso":643,"lat":38.9544,"lng":55.7117},{"cityid":817698,"cityname":"Линия","continentid":4,"continentname":"Европа","countryid":2017370,"countryname":"Россия","regionid":1892,"regionname":"Орловская область","iso":643,"lat":35.7598,"lng":52.6186},{"cityid":535121,"cityname":"Липецк","continentid":4,"continentname":"Европа","countryid":2017370,"countryname":"Россия","regionid":1676,"regionname":"Липецкая область","iso":643,"lat":39.5689,"lng":52.6186},{"cityid":2056851,"cityname":"Лисиха","continentid":4,"continentname":"Европа","countryid":2017370,"countryname":"Россия","regionid":1537,"regionname":"Иркутская область","iso":643,"lat":104.3214,"lng":52.2608},{"cityid":534838,"cityname":"Лиски","continentid":4,"continentname":"Европа","countryid":2017370,"countryname":"Россия","regionid":2237,"regionname":"Воронежская область","iso":643,"lat":39.4942,"lng":50.9792},{"cityid":534595,"cityname":"Лобня","continentid":4,"continentname":"Европа","countryid":2017370,"countryname":"Россия","regionid":1763,"regionname":"МО","iso":643,"lat":37.4819,"lng":56.0097},{"cityid":534560,"cityname":"Лодейное Поле","continentid":4,"continentname":"Европа","countryid":2017370,"countryname":"Россия","regionid":1668,"regionname":"Ленинградская область","iso":643,"lat":33.5531,"lng":60.726},{"cityid":534341,"cityname":"Ломоносов","continentid":4,"continentname":"Европа","countryid":2017370,"countryname":"Россия","regionid":2105,"regionname":"Санкт-Петербург","iso":643,"lat":29.7725,"lng":59.9061},{"cityid":534015,"cityname":"Лосино-Петровский","continentid":4,"continentname":"Европа","countryid":2017370,"countryname":"Россия","regionid":1763,"regionname":"МО","iso":643,"lat":38.2017,"lng":55.8744},{"cityid":533543,"cityname":"Луховицы","continentid":4,"continentname":"Европа","countryid":2017370,"countryname":"Россия","regionid":1763,"regionname":"МО","iso":643,"lat":39.0167,"lng":54.9361},{"cityid":2020689,"cityname":"Лучегорск","continentid":4,"continentname":"Европа","countryid":2017370,"countryname":"Россия","regionid":1946,"regionname":"Приморский край","iso":643,"lat":134.1953,"lng":46.4766},{"cityid":532675,"cityname":"Лысьва","continentid":4,"continentname":"Европа","countryid":2017370,"countryname":"Россия","regionid":1930,"regionname":"Пермский край","iso":643,"lat":57.8053,"lng":58.1086},{"cityid":532657,"cityname":"Лыткарино","continentid":4,"continentname":"Европа","countryid":2017370,"countryname":"Россия","regionid":1763,"regionname":"МО","iso":643,"lat":37.9052,"lng":55.5827},{"cityid":533008,"cityname":"Львовский","continentid":4,"continentname":"Европа","countryid":2017370,"countryname":"Россия","regionid":1763,"regionname":"МО","iso":643,"lat":37.5234,"lng":55.3187},{"cityid":532615,"cityname":"Люберцы","continentid":4,"continentname":"Европа","countryid":2017370,"countryname":"Россия","regionid":1763,"regionname":"МО","iso":643,"lat":37.8932,"lng":55.6772},{"cityid":532895,"cityname":"Лямбирь","continentid":4,"continentname":"Европа","countryid":2017370,"countryname":"Россия","regionid":1757,"regionname":"Мордовия","iso":643,"lat":45.1167,"lng":54.2833},{"cityid":1541359,"cityname":"Лянтор","continentid":4,"continentname":"Европа","countryid":2017370,"countryname":"Россия","regionid":1604,"regionname":"Ханты-Мансийский АО","iso":643,"lat":72.5167,"lng":61.4167},{"cityid":2123628,"cityname":"Магадан","continentid":4,"continentname":"Европа","countryid":2017370,"countryname":"Россия","regionid":1719,"regionname":"Магаданская область","iso":643,"lat":150.8,"lng":59.5667},{"cityid":2020591,"cityname":"Магдагачи","continentid":4,"continentname":"Европа","countryid":2017370,"countryname":"Россия","regionid":1091,"regionname":"Амурская область","iso":643,"lat":125.8,"lng":53.45},{"cityid":532292,"cityname":"Магнитка","continentid":4,"continentname":"Европа","countryid":2017370,"countryname":"Россия","regionid":1272,"regionname":"Челябинская область","iso":643,"lat":59.6961,"lng":55.3475},{"cityid":532288,"cityname":"Магнитогорск","continentid":4,"continentname":"Европа","countryid":2017370,"countryname":"Россия","regionid":1272,"regionname":"Челябинская область","iso":643,"lat":59.0472,"lng":53.4186},{"cityid":528293,"cityname":"Майкоп","continentid":4,"continentname":"Европа","countryid":2017370,"countryname":"Россия","regionid":1058,"regionname":"Адыгея","iso":643,"lat":40.2166,"lng":44.8802},{"cityid":1499163,"cityname":"Майма","continentid":4,"continentname":"Европа","countryid":2017370,"countryname":"Россия","regionid":1080,"regionname":"Алтай","iso":643,"lat":85.9167,"lng":52.05},{"cityid":2020125,"cityname":"Майский","continentid":4,"continentname":"Европа","countryid":2017370,"countryname":"Россия","regionid":1537,"regionname":"Иркутская область","iso":643,"lat":116.1333,"lng":59.6167},{"cityid":6420000,"cityname":"Макасово","continentid":4,"continentname":"Европа","countryid":2017370,"countryname":"Россия","regionid":1830,"regionname":"Нижегородская область","iso":643,"lat":43.1978,"lng":55.7966},{"cityid":531901,"cityname":"Максим","continentid":4,"continentname":"Европа","countryid":2017370,"countryname":"Россия","regionid":1618,"regionname":"Коми","iso":643,"lat":57.2223,"lng":62.6162},{"cityid":531937,"cityname":"Максимовка","continentid":4,"continentname":"Европа","countryid":2017370,"countryname":"Россия","regionid":2034,"regionname":"Саратовская область","iso":643,"lat":46.5583,"lng":52.0597},{"cityid":531098,"cityname":"Малино","continentid":4,"continentname":"Европа","countryid":2017370,"countryname":"Россия","regionid":1763,"regionname":"МО","iso":643,"lat":38.2,"lng":55.1},{"cityid":530849,"cityname":"Малоярославец","continentid":4,"continentname":"Европа","countryid":2017370,"countryname":"Россия","regionid":1614,"regionname":"Калужская область","iso":643,"lat":36.4725,"lng":55.0139},{"cityid":530021,"cityname":"Малые Щербиничи","continentid":4,"continentname":"Европа","countryid":2017370,"countryname":"Россия","regionid":1208,"regionname":"Брянская область","iso":643,"lat":31.9578,"lng":52.28},{"cityid":1499668,"cityname":"Малышева","continentid":4,"continentname":"Европа","countryid":2017370,"countryname":"Россия","regionid":2127,"regionname":"Свердловская область","iso":643,"lat":61.4034,"lng":57.1185},{"cityid":529638,"cityname":"Мамонтовка","continentid":4,"continentname":"Европа","countryid":2017370,"countryname":"Россия","regionid":1763,"regionname":"МО","iso":643,"lat":37.8197,"lng":55.9808},{"cityid":529507,"cityname":"Мантурово","continentid":4,"continentname":"Европа","countryid":2017370,"countryname":"Россия","regionid":1624,"regionname":"Курская область","iso":643,"lat":37.1282,"lng":51.4547},{"cityid":529073,"cityname":"Маркс","continentid":4,"continentname":"Европа","countryid":2017370,"countryname":"Россия","regionid":2034,"regionname":"Саратовская область","iso":643,"lat":46.7486,"lng":51.7111},{"cityid":529024,"cityname":"Мартемьяново","continentid":4,"continentname":"Европа","countryid":2017370,"countryname":"Россия","regionid":1763,"regionname":"МО","iso":643,"lat":37.0634,"lng":55.525},{"cityid":528904,"cityname":"Марьянская","continentid":4,"continentname":"Европа","countryid":2017370,"countryname":"Россия","regionid":1591,"regionname":"Краснодарский край","iso":643,"lat":38.64,"lng":45.1034},{"cityid":532096,"cityname":"Махачкала","continentid":4,"continentname":"Европа","countryid":2017370,"countryname":"Россия","regionid":1334,"regionname":"Дагестан","iso":643,"lat":47.5022,"lng":42.9753},{"cityid":528370,"cityname":"Маяк","continentid":4,"continentname":"Европа","countryid":2017370,"countryname":"Россия","regionid":2034,"regionname":"Саратовская область","iso":643,"lat":45.6792,"lng":51.4203},{"cityid":8430353,"cityname":"Маяковского","continentid":4,"continentname":"Европа","countryid":2017370,"countryname":"Россия","regionid":1272,"regionname":"Челябинская область","iso":643,"lat":61.369,"lng":55.1219},{"cityid":527220,"cityname":"Мга","continentid":4,"continentname":"Европа","countryid":2017370,"countryname":"Россия","regionid":1668,"regionname":"Ленинградская область","iso":643,"lat":31.0667,"lng":59.75},{"cityid":8247794,"cityname":"Мебельная Фабрика","continentid":4,"continentname":"Европа","countryid":2017370,"countryname":"Россия","regionid":1930,"regionname":"Пермский край","iso":643,"lat":57.67,"lng":59.1085},{"cityid":527860,"cityname":"Мега","continentid":4,"continentname":"Европа","countryid":2017370,"countryname":"Россия","regionid":1668,"regionname":"Ленинградская область","iso":643,"lat":34.5359,"lng":60.3567},{"cityid":1499053,"cityname":"Мегион","continentid":4,"continentname":"Европа","countryid":2017370,"countryname":"Россия","regionid":1604,"regionname":"Ханты-Мансийский АО","iso":643,"lat":76.1,"lng":61.05},{"cityid":528056,"cityname":"Медведево","continentid":4,"continentname":"Европа","countryid":2017370,"countryname":"Россия","regionid":1732,"regionname":"Марий Эл","iso":643,"lat":47.8039,"lng":56.6336},{"cityid":528109,"cityname":"Медногорск","continentid":4,"continentname":"Европа","countryid":2017370,"countryname":"Россия","regionid":1891,"regionname":"Оренбургская область","iso":643,"lat":57.2334,"lng":51.4768},{"cityid":1498920,"cityname":"Междуреченск","continentid":4,"continentname":"Европа","countryid":2017370,"countryname":"Россия","regionid":1595,"regionname":"Кемеровская область","iso":643,"lat":88.0603,"lng":53.6942},{"cityid":527717,"cityname":"Мелеуз","continentid":4,"continentname":"Европа","countryid":2017370,"countryname":"Россия","regionid":1155,"regionname":"Башкортостан","iso":643,"lat":55.9167,"lng":52.9667},{"cityid":527361,"cityname":"Металлострой","continentid":4,"continentname":"Европа","countryid":2017370,"countryname":"Россия","regionid":2105,"regionname":"Санкт-Петербург","iso":643,"lat":30.5478,"lng":59.8008},{"cityid":1498894,"cityname":"Миасс","continentid":4,"continentname":"Европа","countryid":2017370,"countryname":"Россия","regionid":1272,"regionname":"Челябинская область","iso":643,"lat":60.1083,"lng":55.045},{"cityid":526558,"cityname":"Миллерово","continentid":4,"continentname":"Европа","countryid":2017370,"countryname":"Россия","regionid":1998,"regionname":"Ростовская область","iso":643,"lat":40.3944,"lng":48.9214},{"cityid":526480,"cityname":"Минеральные Воды","continentid":4,"continentname":"Европа","countryid":2017370,"countryname":"Россия","regionid":2116,"regionname":"Ставрополье","iso":643,"lat":43.1353,"lng":44.2103},{"cityid":1498693,"cityname":"Минусинск","continentid":4,"continentname":"Европа","countryid":2017370,"countryname":"Россия","regionid":1640,"regionname":"Красноярский край","iso":643,"lat":91.6875,"lng":53.7103},{"cityid":870365,"cityname":"Мира","continentid":4,"continentname":"Европа","countryid":2017370,"countryname":"Россия","regionid":1591,"regionname":"Краснодарский край","iso":643,"lat":40.7164,"lng":45.0283},{"cityid":526652,"cityname":"Михнево","continentid":4,"continentname":"Европа","countryid":2017370,"countryname":"Россия","regionid":1763,"regionname":"МО","iso":643,"lat":37.9447,"lng":55.1347},{"cityid":527191,"cityname":"Мичуринск","continentid":4,"continentname":"Европа","countryid":2017370,"countryname":"Россия","regionid":2150,"regionname":"Тамбовская область","iso":643,"lat":40.4907,"lng":52.8978},{"cityid":524712,"cityname":"Можайск","continentid":4,"continentname":"Европа","countryid":2017370,"countryname":"Россия","regionid":1763,"regionname":"МО","iso":643,"lat":36.0272,"lng":55.5019},{"cityid":524699,"cityname":"Можга","continentid":4,"continentname":"Европа","countryid":2017370,"countryname":"Россия","regionid":2195,"regionname":"Удмуртия","iso":643,"lat":52.2554,"lng":56.3745},{"cityid":524736,"cityname":"Моздок","continentid":4,"continentname":"Европа","countryid":2017370,"countryname":"Россия","regionid":2053,"regionname":"Северная Осетия","iso":643,"lat":44.6518,"lng":43.7436},{"cityid":525396,"cityname":"Монино","continentid":4,"continentname":"Европа","countryid":2017370,"countryname":"Россия","regionid":1763,"regionname":"МО","iso":643,"lat":38.1944,"lng":55.8381},{"cityid":525404,"cityname":"Мончегорск","continentid":4,"continentname":"Европа","countryid":2017370,"countryname":"Россия","regionid":1782,"regionname":"Мурманская область","iso":643,"lat":32.8739,"lng":67.9397},{"cityid":525188,"cityname":"Морозово","continentid":4,"continentname":"Европа","countryid":2017370,"countryname":"Россия","regionid":1614,"regionname":"Калужская область","iso":643,"lat":35.2489,"lng":54.8525},{"cityid":525162,"cityname":"Морозовск","continentid":4,"continentname":"Европа","countryid":2017370,"countryname":"Россия","regionid":1998,"regionname":"Ростовская область","iso":643,"lat":41.8261,"lng":48.3539},{"cityid":525103,"cityname":"Морье","continentid":4,"continentname":"Европа","countryid":2017370,"countryname":"Россия","regionid":1668,"regionname":"Ленинградская область","iso":643,"lat":31.0413,"lng":60.166},{"cityid":524901,"cityname":"Москва","continentid":4,"continentname":"Европа","countryid":2017370,"countryname":"Россия","regionid":1764,"regionname":"Москва","iso":643,"lat":37.6156,"lng":55.7522},{"cityid":524927,"cityname":"Московская","continentid":4,"continentname":"Европа","countryid":2017370,"countryname":"Россия","regionid":1607,"regionname":"Кировская область","iso":643,"lat":53.124,"lng":58.8264},{"cityid":857690,"cityname":"Московский","continentid":4,"continentname":"Европа","countryid":2017370,"countryname":"Россия","regionid":1763,"regionname":"МО","iso":643,"lat":37.3549,"lng":55.5991},{"cityid":524311,"cityname":"Мурино","continentid":4,"continentname":"Европа","countryid":2017370,"countryname":"Россия","regionid":1668,"regionname":"Ленинградская область","iso":643,"lat":0.0,"lng":0.0},{"cityid":524305,"cityname":"Мурманск","continentid":4,"continentname":"Европа","countryid":2017370,"countryname":"Россия","regionid":1782,"regionname":"Мурманская область","iso":643,"lat":33.0819,"lng":68.9717},{"cityid":524299,"cityname":"Мурмаши","continentid":4,"continentname":"Европа","countryid":2017370,"countryname":"Россия","regionid":1782,"regionname":"Мурманская область","iso":643,"lat":32.8333,"lng":68.8167},{"cityid":524294,"cityname":"Муром","continentid":4,"continentname":"Европа","countryid":2017370,"countryname":"Россия","regionid":2231,"regionname":"Владимирская область","iso":643,"lat":41.9703,"lng":55.5322},{"cityid":1498129,"cityname":"Мыски","continentid":4,"continentname":"Европа","countryid":2017370,"countryname":"Россия","regionid":1595,"regionname":"Кемеровская область","iso":643,"lat":87.8014,"lng":53.709},{"cityid":523812,"cityname":"Мытищи","continentid":4,"continentname":"Европа","countryid":2017370,"countryname":"Россия","regionid":1763,"regionname":"МО","iso":643,"lat":37.7308,"lng":55.9116},{"cityid":1498087,"cityname":"Надым","continentid":4,"continentname":"Европа","countryid":2017370,"countryname":"Россия","regionid":2284,"regionname":"Ямало-Ненецкий АО","iso":643,"lat":72.5167,"lng":65.5333},{"cityid":1497951,"cityname":"Назарово","continentid":4,"continentname":"Европа","countryid":2017370,"countryname":"Россия","regionid":1640,"regionname":"Красноярский край","iso":643,"lat":90.4011,"lng":56.0104},{"cityid":523064,"cityname":"Назрань","continentid":4,"continentname":"Европа","countryid":2017370,"countryname":"Россия","regionid":1534,"regionname":"Ингушетия","iso":643,"lat":44.7732,"lng":43.226},{"cityid":523523,"cityname":"Нальчик","continentid":4,"continentname":"Европа","countryid":2017370,"countryname":"Россия","regionid":1587,"regionname":"Кабардино-Балкария","iso":643,"lat":43.6147,"lng":43.5017},{"cityid":523426,"cityname":"Наро-Фоминск","continentid":4,"continentname":"Европа","countryid":2017370,"countryname":"Россия","regionid":1763,"regionname":"МО","iso":643,"lat":36.7411,"lng":55.3853},{"cityid":523392,"cityname":"Нарьян-Мар","continentid":4,"continentname":"Европа","countryid":2017370,"countryname":"Россия","regionid":1818,"regionname":"Ненецкий АО","iso":643,"lat":53.0431,"lng":67.6418},{"cityid":523266,"cityname":"Наука","continentid":4,"continentname":"Европа","countryid":2017370,"countryname":"Россия","regionid":2034,"regionname":"Саратовская область","iso":643,"lat":49.7798,"lng":51.9769},{"cityid":523553,"cityname":"Нахабино","continentid":4,"continentname":"Европа","countryid":2017370,"countryname":"Россия","regionid":1763,"regionname":"МО","iso":643,"lat":37.1779,"lng":55.8485},{"cityid":2019528,"cityname":"Находка","continentid":4,"continentname":"Европа","countryid":2017370,"countryname":"Россия","regionid":1946,"regionname":"Приморский край","iso":643,"lat":132.8735,"lng":42.8138},{"cityid":522377,"cityname":"Невинномысск","continentid":4,"continentname":"Европа","countryid":2017370,"countryname":"Россия","regionid":2116,"regionname":"Ставрополье","iso":643,"lat":41.9453,"lng":44.6267},{"cityid":2019309,"cityname":"Нерюнгри","continentid":4,"continentname":"Европа","countryid":2017370,"countryname":"Россия","regionid":2023,"regionname":"Саха (Якутия)","iso":643,"lat":124.7142,"lng":56.6733},{"cityid":522942,"cityname":"Нефтекамск","continentid":4,"continentname":"Европа","countryid":2017370,"countryname":"Россия","regionid":1155,"regionname":"Башкортостан","iso":643,"lat":54.2667,"lng":56.0833},{"cityid":1497917,"cityname":"Нефтеюганск","continentid":4,"continentname":"Европа","countryid":2017370,"countryname":"Россия","regionid":1604,"regionname":"Ханты-Мансийский АО","iso":643,"lat":72.7,"lng":61.0833},{"cityid":521192,"cityname":"Нижегородская","continentid":4,"continentname":"Европа","countryid":2017370,"countryname":"Россия","regionid":1591,"regionname":"Краснодарский край","iso":643,"lat":39.9234,"lng":44.2692},{"cityid":1497543,"cityname":"Нижневартовск","continentid":4,"continentname":"Европа","countryid":2017370,"countryname":"Россия","regionid":1604,"regionname":"Ханты-Мансийский АО","iso":643,"lat":76.5667,"lng":60.9333},{"cityid":521118,"cityname":"Нижнекамск","continentid":4,"continentname":"Европа","countryid":2017370,"countryname":"Россия","regionid":2145,"regionname":"Татарстан","iso":643,"lat":51.8245,"lng":55.6366},{"cityid":520555,"cityname":"Нижний Новгород","continentid":4,"continentname":"Европа","countryid":2017370,"countryname":"Россия","regionid":1830,"regionname":"Нижегородская область","iso":643,"lat":44.0075,"lng":56.3269},{"cityid":520494,"cityname":"Нижний Тагил","continentid":4,"continentname":"Европа","countryid":2017370,"countryname":"Россия","regionid":2127,"regionname":"Свердловская область","iso":643,"lat":59.965,"lng":57.9194},{"cityid":1497393,"cityname":"Нижняя Салда","continentid":4,"continentname":"Европа","countryid":2017370,"countryname":"Россия","regionid":2127,"regionname":"Свердловская область","iso":643,"lat":60.7202,"lng":58.0776},{"cityid":522260,"cityname":"Никель","continentid":4,"continentname":"Европа","countryid":2017370,"countryname":"Россия","regionid":1782,"regionname":"Мурманская область","iso":643,"lat":30.2208,"lng":69.4083},{"cityid":521874,"cityname":"Николаевск","continentid":4,"continentname":"Европа","countryid":2017370,"countryname":"Россия","regionid":2225,"regionname":"Волгоградская область","iso":643,"lat":45.4595,"lng":50.0282},{"cityid":521444,"cityname":"Никулин","continentid":4,"continentname":"Европа","countryid":2017370,"countryname":"Россия","regionid":2225,"regionname":"Волгоградская область","iso":643,"lat":42.25,"lng":49.8},{"cityid":1497259,"cityname":"Нов.Силава","continentid":4,"continentname":"Европа","countryid":2017370,"countryname":"Россия","regionid":1604,"regionname":"Ханты-Мансийский АО","iso":643,"lat":64.9833,"lng":60.0833},{"cityid":1489837,"cityname":"Нов.Теча","continentid":4,"continentname":"Европа","countryid":2017370,"countryname":"Россия","regionid":1272,"regionname":"Челябинская область","iso":643,"lat":60.7028,"lng":55.7556},{"cityid":519148,"cityname":"Нова","continentid":4,"continentname":"Европа","countryid":2017370,"countryname":"Россия","regionid":2233,"regionname":"Вологодская область","iso":643,"lat":38.1679,"lng":59.0833},{"cityid":6818766,"cityname":"Новатор","continentid":4,"continentname":"Европа","countryid":2017370,"countryname":"Россия","regionid":1591,"regionname":"Краснодарский край","iso":643,"lat":38.1929,"lng":46.5669},{"cityid":1497173,"cityname":"Новоалтайск","continentid":4,"continentname":"Европа","countryid":2017370,"countryname":"Россия","regionid":1084,"regionname":"Алтайский край","iso":643,"lat":83.9363,"lng":53.3917},{"cityid":519016,"cityname":"Новобессергеневка","continentid":4,"continentname":"Европа","countryid":2017370,"countryname":"Россия","regionid":1998,"regionname":"Ростовская область","iso":643,"lat":38.8463,"lng":47.1846},{"cityid":518909,"cityname":"Новодвинск","continentid":4,"continentname":"Европа","countryid":2017370,"countryname":"Россия","regionid":1114,"regionname":"Архангельская область","iso":643,"lat":40.8122,"lng":64.4165},{"cityid":517577,"cityname":"Новое Девяткино","continentid":4,"continentname":"Европа","countryid":2017370,"countryname":"Россия","regionid":1668,"regionname":"Ленинградская область","iso":643,"lat":30.4784,"lng":60.0727},{"cityid":1496598,"cityname":"Новоенисейск","continentid":4,"continentname":"Европа","countryid":2017370,"countryname":"Россия","regionid":1640,"regionname":"Красноярский край","iso":643,"lat":92.3823,"lng":58.2938},{"cityid":1496990,"cityname":"Новокузнецк","continentid":4,"continentname":"Европа","countryid":2017370,"countryname":"Россия","regionid":1595,"regionname":"Кемеровская область","iso":643,"lat":87.1,"lng":53.75},{"cityid":518659,"cityname":"Новокуйбышевск","continentid":4,"continentname":"Европа","countryid":2017370,"countryname":"Россия","regionid":2030,"regionname":"Самарская область","iso":643,"lat":49.9462,"lng":53.0959},{"cityid":518557,"cityname":"Новомосковск","continentid":4,"continentname":"Европа","countryid":2017370,"countryname":"Россия","regionid":2180,"regionname":"Тульская область","iso":643,"lat":38.2846,"lng":54.0105},{"cityid":518383,"cityname":"Новопавловск","continentid":4,"continentname":"Европа","countryid":2017370,"countryname":"Россия","regionid":2116,"regionname":"Ставрополье","iso":643,"lat":43.6342,"lng":43.9622},